장소 이름,위도,경도
홍마트 모슬포점,126.252430900737,33.2195372853097
우리들마트,126.24822372555504,33.22883101022313
케이마트,126.25403209158829,33.22551558028207
밧데리&타이어마트,126.2515070063583,33.22889498716455
정마트 코사마트,126.255478251691,33.2234793831102
홍마트앞주차장,126.252420360206,33.2192631312306
홍마트앞 공영주차장,126.251824711302,33.2196778998365
우리들마트 주차장,126.24820809888,33.2291527914787
CU 대정하모리점,126.25181332573884,33.22025937250717
CU 모슬포점,126.25673627376,33.2254163589848
모슬포수협 바다마트,126.25849633171606,33.210068751339094
대정농협 하나로마트,126.26419905450666,33.23404408397046
제주안덕농협하나로마트&로컬푸드직매장 제주1호점,126.33329872601333,33.24665595534223
안덕농협하나로마트 사계지점,126.2919271747374,33.23084739348255
해가마트,126.32261747241982,33.2497692207707
난드르삼거리마트,126.36582350809,33.2348597566879
효재마트로또명당,126.311521849163,33.233782148868
동양월드마트 화순점,126.33610559135,33.2472443985989
제주안덕농협하나로마트 주차장,126.333407016117,33.2465258013718
코사마트해변점,126.333338539232,33.2408461478938
새생활마트,126.277139829539,33.2478713625904
향휴게마트,126.27559914833093,33.24615744933678
대정농협하나로마트 주차장,126.264531803769,33.2337683549226
진동산마트,126.260573982954,33.2216632667714
대정농협 하나로마트 전기차충전소,126.26419128594814,33.23356257656547
안덕농협 하나로마트 전기차충전소,126.33332449115036,33.246654290223695
박철우부동산마트 공인중개사사무소,126.34383103495269,33.25490225716656
CU 제주송악산점,126.291036058536,33.2076563242412
CU 제주화순점,126.335317479223,33.2464611921148
네이처컬렉션 제주대정하나로마트점,126.264199054507,33.2340440839705
이마트 서귀포점,126.5092067307476,33.24835812463035
중문농협하나로마트 본점,126.43041832783432,33.25093539168394
해성마트,126.419734281243,33.2542517542524
스타월드마트 중문점,126.427329535566,33.2546259726527
스타월드식자재마트,126.504647335832,33.2529203143894
중문낚시마트,126.433986338055,33.2514322469473
해성정육마트,126.42092285066,33.2523674953132
E-마트,126.509115623912,33.2483397325111
중문 코사마트,126.426704450044,33.2517487210019
강정코사마트,126.479762146302,33.2358573011937
중문농협하나로마트 주차장,126.430599249105,33.2508361400428
새생활할인마트,126.506689438497,33.25311597012
원정코사마트,126.390559805619,33.2459976175283
펫마트 중문점,126.44277223526645,33.25253223313215
예래코사마트,126.39097947856,33.2467534282892
펫마트 서귀포혁신점,126.50708547515876,33.24832719481864
킹마트분식,126.42119527831844,33.25238859924124
관광편의마트,126.413396343449,33.2494470314941
도순할인마트,126.474336552998,33.2525181860394
경진마트,126.476130458394,33.2367436872009
삼다농수산토산품할인마트,126.489613506849,33.2347512403528
하원옥돔마트,126.456896209935,33.2539507595708
올레코사마트,126.477561341425,33.2364467582338
3분마트 글래즈하임호텔점,126.497921801474,33.236654128329
하동코사마트,126.461056526587,33.2545026206591
3분마트 썬라이즈호텔중문점,126.430551964119,33.2475377865344
CU 서귀포강정점,126.505502271996,33.2512647231839
CU 강정마을점,126.4786310300388,33.23608518542508
CU 제주중문점,126.42565660274948,33.25182683536333
해성펜션,126.419840255282,33.2544542119292
한경농협하나로마트,126.19001166493884,33.346442570515386
제주고산농협 하나로마트,126.17924394231471,33.300238249083186
대정농협하나로마트 무릉점,126.20094537509875,33.271435609291444
한림수협마트,126.260137408448,33.4147330768992
당멀마켓(마트),126.258234419687,33.3368962545779
금성마트,126.178798675575,33.3011224781914
한경농협 하나로마트 전기차충전소,126.19025468837188,33.3466479149619
한경농협 저청지소,126.256421423636,33.333975054983
한경농협 조수지점,126.22858748717093,33.336067406965626
코스트코 제주점(2026년 예정),126.308531506826,33.3013657156922
마마뜰마켓,126.335682299496,33.3102323801462
에듀시티마트,126.27615869663968,33.27940397068409
마켓오리진,126.277383750267,33.280541714145784
굿모닝마트,126.270531373079,33.3184141532326
민우코사마트,126.510131186216,33.250951243762
로드랜드미니마트,126.385663279086,33.348209249742
제주한림농협하나로마트,126.26388654855646,33.40997696528563
애월농협하나로마트,126.32233635293836,33.46049333250818
애월농협 하나로마트 봉성점,126.312171663527,33.4190427679423
좋은마트 애월점,126.36544719006,33.4711348251034
한림마트,126.263359305858,33.408506050524
바다슈퍼,126.36640440059244,33.47545381318589
곽지마트,126.3058911130762,33.44735911892851
한림킹마트,126.265947119984,33.4229107223691
애월수산마트,126.33187150890927,33.46742328223356
한림항정육마트식당,126.263460069592,33.4169455083936
한수위마트,126.261491011291,33.4161205704497
수영코사마트,126.37342129895612,33.47317060236971
애월물류마트,126.3203299928843,33.466703349721925
홍마트 한림점,126.264787553753,33.4120018648815
제주한림농협하나로마트 주차장,126.263880007508,33.4099877455315
애월농협하나로마트 주차장,126.32188053171,33.4600463585331
한라마트,126.262500442383,33.4139681759687
해양마트,126.26242097158077,33.415229925607214
하림건재마트,126.267137972841,33.4070930994625
애월농협 하나로마트 전기차충전소,126.32190549309472,33.460432373552806
삼정종합슈퍼마트,126.373549703531,33.4732668196209
전남인테리어할인마트,126.264468144855,33.4157145120347
천냥하우스디씨마트,126.264835389002,33.4155111270227
CU 제주애월점,126.320473836191,33.4645646120901
CU 한림제일점,126.263682935964,33.4144873016603
CU 제주한림항점,126.263409099451,33.4163609773791
CU 제주한림점,126.26501425450438,33.416867272429286
빽다방 제주애월좋은마트점,126.3658602565048,33.47099178352053
제주열쇠도어락 자동차키스마트키폴딩키수입차키제작,126.264601528878,33.4104761772291
하귀농협하나로마트,126.41213574702876,33.4850628812185
한국물류 1호점,126.431269072213,33.4899053392525
크라운마트,126.431128779656,33.4843725466606
광령마트,126.438161379125,33.4610065314293
시티마트,126.434048991716,33.4879994856649
진영마트 외도점,126.43238282751592,33.48610033186451
무수천마트,126.444437386269,33.4607454033194
제이마트 하귀,126.415266994535,33.482629882716
그린마트,126.401133685226,33.4808989654601
그린마트 외도점,126.432433002473,33.4863259589101
플러스마트,126.446127041423,33.4817465325491
펫마트 제주하귀점,126.415332739157,33.4826130627072
신발마트,126.4312345699,33.4899159999615
콩마트,126.432477400678,33.4894168084376
뚱돼지수산마트,126.431102804721,33.4909783677112
수산마트,126.393293264878,33.4679753341154
하귀농협하나로마트 주차장,126.411473856235,33.4849299111083
제주 하귀하나로마트 E-pit 전기차충전소,126.41068985471158,33.48455743609867
착한제주마트,126.433518944124,33.4933885624749
크라운마트 주차장,126.431111638363,33.4841966580885
크라운마트 베이커리,126.431137387005,33.4843725861698
하귀농협하나로마트 하나로북카페,126.412152986168,33.48505935664
CU 제주아름점,126.428181797068,33.4848566614535
CU 외도일주점,126.423768628492,33.4922689127293
CU 제주외도부영점,126.432427641099,33.4858282572303
CU 제주하귀주공점,126.414115950116,33.481801296428
CU 하귀대성점,126.404844482461,33.4813712408473
네이처컬렉션 제주하귀하나로마트점,126.412157289862,33.485059377054
평화로휴게소마트,126.4494193617647,33.46201272945493
서부관광휴게마트,126.45019366151833,33.462553515546176
스카이마트,126.45979282542,33.469700272499
CU 서부관광점,126.451525276027,33.4630787318822
CU 제주한라아트홀점,126.47476317544934,33.47613526767355
제일마트,126.480869914836,33.4761014899272
EK베이킹 식자재마트,126.48569902842245,33.46888272283965
다모아마트 정실점,126.50778100412266,33.47234884745469
이좋은마트,126.47958900134356,33.477289827744194
하나축산마트,126.491058100811,33.477964961838
예스마트,126.48881776456244,33.47729397262608
창고형가전마트,126.504437745197,33.4651047292677
인팡하이브리드마트 제주,126.4912233863984,33.475640430110786
제일마트내 반찬코너,126.4808614157714,33.47608342246436
CU 제주연화점,126.490286926396,33.4781096541622
CU 제주과원점,126.486391053246,33.4761244912237
CU 중흥S점,126.4818251023746,33.476491368811104
대림마트,126.45958989081149,33.493895392156176
그린마트 이호점,126.459942117513,33.4934921140644
제주시농협 하나로마트 노형점,126.46737290666142,33.48760172922706
황금마트,126.472159076596,33.4854484708932
베스트마트,126.471079622289,33.4831898897339
그린마트 정존점,126.47270873505,33.4849423131584
노형로또마트,126.475302984915,33.488671486844
유드림마트,126.46690912527916,33.4844450679378
제이마트,126.47520097210696,33.48560429182302
펫마트 제주노형점,126.474838864753,33.4903356610707
뉴월드마트 노형점,126.47741257801064,33.48964330034504
월랑 사랑마트,126.47705980285,33.4921229904313
농협 하나로마트 노형점 전기차충전소,126.46826040782628,33.48833763225277
키친마트,126.472018766302,33.4929671412498
여행마트 여행사,126.472928136752,33.4835367634633
뜨란채마트,126.472424397206,33.4864088938968
CU 제주정든점,126.47505254824,33.4895179218552
CU 노형대화점,126.473698478342,33.4821191283729
나들가게 정든마트,126.472139102392,33.4887409968971
스포츠토토 정든마트복권,126.472173304035,33.4887790093967
네이처컬렉션 제주노형하나로마트점,126.467355663624,33.4876061630705
바구니마트,126.461983553509,33.4946874863328
거룡낚시할인마트,126.461084055723,33.4953651791525
바구니마트구내,126.46196187633,33.4947126367176
CU 제주이호행운점,126.450393429511,33.4951451173661
마트클럽,126.466774540153,33.5030677306253
CU 도두항점,126.466420089941,33.5040074630474
금강축산유통 축산물할인마트,126.46634210228709,33.50443988958604
나들가게 코사마트도두점,126.465620507051,33.5038273056002
제주시농협하나로마트 오라점(휴업중),126.504748329037,33.4937081424065
좋은마트,126.5097436015352,33.5053269806671
뉴월드마트로 연동점,126.482294891382,33.4933711359023
진영마트 용담점,126.507071738686,33.5128527695813
중고타이어마트,126.510322195381,33.4960347636873
서경꽃마트,126.487217976909,33.4935394671134
광고마트,126.50503318487212,33.50151435822312
그린마트 신제주,126.493629364033,33.4931402813985
으뜸마트,126.51038375504592,33.49599533689721
삼신주방그릇마트,126.507131808866,33.4999782984778
비바리농수산마트,126.50307815715288,33.51218316230201
지은코사마트,126.504090323179,33.5026709354117
제주시농협하나로마트 오라점 주차장,126.504632010266,33.4935372765621
혼길마트,126.48729068268096,33.50183349922038
코사마트 수자슈퍼점,126.510654595927,33.5065738756066
해진마트,126.33229948387836,33.95570316247704
제주축산할인마트,126.50691212131238,33.51290983607259
현우농수마트,126.50311565848,33.5105180770743
DC마트,126.512372315507,33.5096343349079
코사마트 추자점,126.297029865764,33.9636672746485
CU 제주서해안로점,126.488459454453,33.5181038940004
CU 제주용원점,126.50840569951566,33.50611778371509
CU 제주남성점,126.512547006834,33.5045834106414
탑마트,126.51133367812952,33.509641061470425
제주은행 365코너 용담킹마트,126.508938870139,33.5090888348881
보떼 용담킹마트화장품점,126.50893675840273,33.50908161379725
제주은행 365코너 진영하이퍼마트,126.507199831846,33.5128505744373
진도농협 하나로마트,126.262667473681,34.4798143807524
진도농협하나로마트 의신점,126.28041495398116,34.44002523734068
선진농협하나로마트 고군점,126.343449961429,34.4916944838897
서진도농협하나로마트,126.19352424144851,34.40809139773199
선진농협하나로마트,126.314074098864,34.5015498576568
서진도농협하나로마트 조도점,126.04762261291684,34.29764627732961
서진도농협하나로마트 지산점,126.1662700833518,34.4236089790274
서진도농협하나로마트 동부점,126.19029797369328,34.46847247453002
서진도농협하나로마트 광석점,126.2320474683124,34.42668542068433
진도채원알뜰마트,126.2806097245962,34.440912499497585
진도식자재마트,126.25778674000948,34.480758384254365
서진도농협협동조합,126.192915572592,34.4085029465687
태호마트,126.353402782993,34.4365351283558
현우알뜰마트,126.26236258686296,34.486749969631106
태건종합건재마트,126.256828724576,34.4807669851145
김밥마트,126.264685642308,34.4825452637633
진도종합건재마트,126.26823837302533,34.48084935763175
아시아마트,126.272799822929,34.4824405734889
행복마트,126.26399203521,34.4846720762653
로얄타이어마트,126.260059571425,34.481262546364
금동이네마트식품,126.345842985199,34.4227577752629
신농농자재마트,126.256618096544,34.4805818117423
진도마트,126.137120284737,34.3640237906854
월드마트,126.263279635239,34.4800172893872
과일마트,126.264203745131,34.4838692729052
유일낚시마트,126.192883653133,34.4091085026346
서부마트,126.1245697294,34.4356130981654
알뜰마트 석교점,126.193664641031,34.40842134838
진도농협 하나로마트 주차장,126.263278715215,34.4797504594932
6번마트,126.313942308458,34.5011560924334
우정마트,126.343201693863,34.491144174267
중앙마트,126.167176008551,34.4245093741117
우돈다니월드마트,126.314812866996,34.5018839279008
성안마트,126.265051605301,34.487115026311
터미널농약할인마트,126.26291467092624,34.478442086968144
삼성진도가전마트,126.262321085042,34.4845394061247
임회종합마트,126.192260977924,34.409165690372
농기계하나로마트 진도중고농기계상설판매장,126.257191371808,34.4806267634638
알뜸마트,126.262361926808,34.4867012882893
CU 진도중앙점,126.263869648977,34.4807591188343
CU 진도농민후계점,126.263680172077,34.4820055612221
진도농협 하나로마트<간>,126.26351662870935,34.47980507799904
벌크커피 진도하나로마트점,126.2626654235729,34.47979994544631
나들가게 보광마트,126.313786298702,34.5010605657174
신안농협하나로마트 안좌점,126.12622860696648,34.7523105768438
남신안농협하나로마트,126.037726549469,34.6081283267891
남신안농협하나로마트 신의점,126.088027386069,34.5851143011401
남신안농협하나로마트 장산점,126.14685509437244,34.64162696221314
신의마트,126.092535132699,34.5855264937827
문내농협하나로마트,126.312967968458,34.5990888460191
선진농협하나로마트 군내점,126.298168383396,34.5373797204775
녹진마트,126.298834209495,34.5705938582675
매일식품마트,126.311845935553,34.5963503195826
문내종합마트,126.311833780867,34.59782407267648
중앙식품점,126.310231843992,34.5914329725421
새로나수퍼,126.312550741073,34.5973341359077
황산농협하나로마트 본점,126.43507382745146,34.57597072921763
황산할인마트,126.429912438916,34.5740546287959
황산대형마트,126.432193994878,34.5757275016221
서프라이스마트,126.43017526073,34.5756252466056
농장마트,126.431957914986,34.5758273633862
나들가게 효명마트,126.433555915021,34.5761007118114
롯데슈퍼프레시 한마음점,126.37969433743352,34.74508936953672
해남화원농협하나로마트,126.329379078032,34.6686720891965
영암마트 삼호점,126.378681843656,34.7467320622399
베트남전문마트,126.376939660684,34.7483790373154
삼호마트,126.381726115993,34.7450240734115
신철마트,126.328485727565,34.6685121289404
현대마트,126.375055405849,34.7474202062988
사랑애마트,126.380714611208,34.7447692456019
우리마트,126.328303228025,34.6689546175482
1차마트,126.36998266039,34.7464277667228
제일농약원예할인마트,126.327666753794,34.6699498717736
태양마트,126.37053101887012,34.74784760587853
삼호4차삼호마트,126.370944813545,34.7480047850761
복권판매점 삼호마트,126.379794259216,34.7460535679475
산이농협하나로마트,126.44664100621044,34.64484851265602
영일농자재마트,126.438724612242,34.6488849513894
새농사마트,126.449185872882,34.6431671643773
삼호농협하나로마트,126.47272179476806,34.74852673150809
롯데슈퍼프레시 영암삼호가맹점,126.46572233707636,34.74636620025583
하나로마트 공단점,126.455895010073,34.7550122467119
파머스식자재마트 삼호점,126.456852171232,34.75494801289433
삼호식자재마트,126.45347274890057,34.753825966792114
삼성마트,126.46002199342016,34.75355231131151
대불마트,126.455357981324,34.7559617301015
JK아시아마트,126.453494706169,34.7549690474738
삼호주공마트,126.473896209646,34.7453597571752
아시아월드마트,126.453727645522,34.7554198939354
야미마트,126.45534937003652,34.75228305528658
현대종합마트,126.455093504491,34.7523296851695
뉴아시아마트,126.454015717968,34.752140970943
용마트,126.451253598416,34.7556260088727
스타공구마트,126.452072376728,34.7566717201483
퀸스빌마트,126.465705513872,34.7460957042577
주공2차마트,126.475388625761,34.7455969554053
영암할인마트,126.451512316432,34.7548195153667
민준마트,126.454474034729,34.7538593014284
혜성마트,126.453283700673,34.7525162772045
삼호할인마트,126.4728468823707,34.74413651628555
하나마트,126.4567143024205,34.75298593906155
하나로마트식자재판매장,126.473307146977,34.7486996304475
한베마트,126.454772415009,34.7533270055916
종원마트,126.47448991731989,34.74783127614966
솔마트,126.468984926536,34.7455872308559
카안니잉마트,126.454502773644,34.7524784766265
금호축산마트,126.460123996565,34.7538213825374
먹싸마트,126.48502663443686,34.75129172114224
빅C마트,126.454567497713,34.7567532314071
블리스마트,126.452781778719,34.7559231382561
한양마트,126.462816764678,34.7469807982433
타이푸드마트,126.455407664133,34.7515549799951
렉지안마트,126.461176091623,34.7586431538923
세자매DC마트,126.475515782165,34.7462122632371
리타 아세안 마트,126.453528104576,34.7532150622169
삼호농협하나로마트 전기차충전소,126.47310917099335,34.748576182675954
CU 삼호중앙점,126.46622147402,34.7453371788771
하나은행365 삼호식자재마트,126.453482506731,34.7538368274516
우리동네 대불DC마트점,126.453109216292,34.7551277669814
신안농협하나로마트 로컬푸드직매장,126.11371558294964,34.82856314459806
신안농협하나로마트 자은점,126.046075670822,34.8841198239967
북신안농협하나로마트 증도점,126.14007123428,35.0011934386101
신안농협하나로마트 팔금점,126.142918050679,34.7839162759693
천사마트,126.114509348637,34.8291602243988
우전마트,126.138034618608,34.9643317735168
삼양할인마트,126.04500337149108,34.88556709624652
88마트,126.112487755929,34.8280782692513
서울마트,126.24453023374994,34.84960520587167
남양마트,126.142932620937,34.7841976091347
제이월드마트,126.04559588579,34.8836112981447
발리마트,126.22812446580316,34.84824026446633
천냥&DC마트,126.384090357389,34.7864932368393
한우리마트고 성심점,126.38146348101104,34.786681829522614
신안할인마트,126.38492004394,34.7833461477874
새한24시할인마트,126.38089414247,34.7828939694327
아이티마트 목포점,126.384463582085,34.7905225646898
신할인마트,126.384983285645,34.7836574494108
남흥마트,126.382768524436,34.7826547023739
코사마트용산점,126.383382173932,34.7860786144547
행운마트,126.384860623836,34.7864935263139
동아마트,126.383290295654,34.781982200253
원풍마트,126.380935993655,34.7847501588235
보람야채마트,126.381746213564,34.7867148147926
DC마트 서산5호점,126.379718346986,34.7827789146512
코사마트 일신마트,126.383691572385,34.7844360332382
나들가게 용산마트,126.383291406487,34.786089872777
나들가게 행운마트,126.38481251198,34.7864986915473
압해낚시마트,126.334881602014,34.8202492007101
마트인,126.36608189697772,34.80584115506462
데이마트,126.369346154706,34.805415531389
청해마트,126.368761080302,34.8036061057742
코사마트 바다점,126.36824545917,34.8041550828729
실크밸리마트,126.3664748939,34.8048967389505
선경마트,126.365025053653,34.8028583438107
CU 목포등대점,126.367735481941,34.8033916583838
CU 목포북항점,126.36639136714102,34.803958855205465
압해농협하나로마트,126.3133543942065,34.86594877333986
섬마트,126.31553741371536,34.86381939953364
신흥마트,126.311689480769,34.8653426463611
풍년농약마트,126.315647873299,34.8636866168092
대성마트,126.31332325989548,34.86495797997304
CU 신안압해점,126.3143694512249,34.86487374527172
롯데슈퍼프레시 목포연산점,126.38508666782602,34.812115920935426
압해농협하나로마트 신장지점,126.354617122085,34.8394550116335
초원식자재마트,126.377335650392,34.810814555025
뉴하나로마트,126.377407250105,34.8053632947716
와이마트 목포대성점,126.38246327400188,34.803378046486095
팔레스마트,126.371071631275,34.8084495363199
신신마트,126.384896521871,34.8046117587772
와이마트 산정연산점,126.37849918131,34.8118877524557
도소매협동식자재마트,126.37613916217288,34.80947797073258
아시아 타이마트,126.378722700463,34.8077352744102
홈마트 연산점,126.38127588122197,34.81194066278606
차관마트,126.372156501431,34.8048928326376
비치마트,126.370983766915,34.8085067713156
반찬마트,126.377284135593,34.809817350803
대신마트,126.380736650903,34.8032313593354
에이플러스할인마트,126.37765120555,34.8043117146894
엠에스펫마트목포북향점,126.373842472735,34.8091164339901
현대할인마트,126.378404254023,34.8117214112975
초원식자재마트 주차장,126.377598908856,34.8103958527372
현대클래스마트,126.384323954097,34.8131252300081
개미마트연산점,126.381833049849,34.8127015660166
코사마트에이데이,126.37745043368,34.8042710264442
CU 목포산정점,126.3761594027736,34.805631829322586
CU 산정라인점,126.374370715897,34.807475010019
CU 목포보건소점,126.374276971737,34.8042619618568
나들가게 라인마트,126.375318271518,34.808482227101
나들가게 차관마트,126.372166220243,34.8049082064671
하늘24시마트,126.388260005606,34.7883675357345
영진할인마트,126.387352701204,34.7875408985083
굿플러스협동조합마트,126.38534085594756,34.78950661727897
삼학마트,126.389283180926,34.7871143235245
준할인마트,126.400324212632,34.7887160173395
부두마트,126.385463179135,34.7842106268441
동산마트,126.39453242047,34.7883988980189
황제마트,126.404066928456,34.7903136475972
청룡마트,126.391473535959,34.7887892725177
코사마트 만흥점,126.387691419057,34.7866520226551
나들가게 화니마트,126.40029187409,34.7894099340344
원광공구마트,126.43759509391718,34.768633142248824
대불코퍼레이션,126.42350873946,34.7724802423212
롯데마트 맥스 목포점,126.429394588792,34.797227955998
맘마트 제일점,126.439139151195,34.8003461183542
로또마트,126.432125835338,34.8011347686699
시너바슈즈마트,126.429940350898,34.798902606396
신원산업공구마트,126.4366487786742,34.80194631512399
한우리마트 우미평화점,126.434076286562,34.8003578354349
아델리움마트,126.446816325891,34.8064882271539
마트클로버,126.430392997553,34.803949846514
양지마트,126.428592255016,34.7994848970665
타이타이 목포마트,126.434876241274,34.798428955654
우미5차마트,126.427363816719,34.7957184919835
부영나이스마트,126.430668915233,34.8032372312197
제일하이빌마트,126.43153504381294,34.806169918624455
굿모닝 할인마트,126.433342617492,34.8053697959854
평화마트,126.436274958413,34.7997118219572
다이소 롯데마트목포점,126.429472889834,34.7972824069495
CU 목포시네마점,126.433099246047,34.7994158345939
CU 하당부영점,126.430134676449,34.803375348676
오토오아시스 롯데마트목포점,126.429376807664,34.7972711397302
나들가게 개미마트,126.432057960236,34.8013120272298
던킨 목포롯데마트맥스점,126.429468767455,34.7972463317099
쏘카존 롯데마트 목포점 옆,126.43027065934582,34.798064951811014
나들가게 양지마트,126.428537681286,34.7994756268503
아가방갤러리 롯데마트맥스 목포점,126.429460025941,34.7972462907314
나들가게 제일하이빌마트,126.431711101048,34.8063131615916
나들가게 신안마트,126.42739581162,34.7986770299978
롯데ATM 롯데마트 목포1층 2,126.429403081896,34.7972640517315
롯데ATM 롯데마트맥스 목포1층2,126.429468767455,34.7972463317099
롯데ATM 롯데마트맥스 목포1층3,126.429468767455,34.7972463317099
씨채널안경 롯데마트목포점,126.429467674766,34.7972463265876
트래커 롯데마트맥스 목포점,126.429467674766,34.7972463265876
롯데ATM 롯데마트 목포1층 3,126.429403081896,34.7972640517315
민팃ATM 롯데마트목포점,126.429468767455,34.7972463317099
롯데마트 남악점,126.465642224698,34.802686418948035
ABC마트 ST남악롯데아울렛점,126.46425316030884,34.80321123582573
다이소 롯데마트남악점,126.465720514294,34.8027471564126
토이저러스 롯데마트남악점,126.465659854401,34.8026639613805
던킨 무안남악롯데마트점,126.46535031604246,34.80270677045246
네이처리퍼블릭 롯데마트남악,126.46571163837184,34.80276784962234
미샤 롯데마트남악점,126.464710365746,34.8034854701669
못된고양이 목포남악롯데마트점,126.465744758757,34.8027157138828
홀리카홀리카 롯데마트남악점,126.46576076644271,34.802775276489626
더샘 롯데마트남악점,126.46487076528196,34.803523132936576
토니모리 롯데마트남악점,126.46572031654468,34.802777803110494
이디야커피 무안남악롯데마트점,126.464710365746,34.8034854701669
롯데ATM 롯데마트 남악1층 1,126.46564550799803,34.80285499497654
오가다 롯데마트무안남악점,126.465729694905,34.802848604103936
민팃ATM 롯데마트남악점,126.464710365746,34.8034854701669
콜리올리 롯데마트남악점,126.464709278796,34.8034845639871
빠뮤 롯데마트 남악점,126.464710365746,34.8034854701669
엔프라니 롯데마트남악점,126.464714433842,34.8035323608001
디어베이비 롯데마트남악점,126.46564922758,34.8029559679938
하나로마트 남악점,126.46060788308398,34.81372886954624
텃밭 남악점,126.458648637655,34.8140014046365
지엠마트,126.466390010317,34.8094204430272
모아할인마트,126.459208345795,34.8079609249324
알이써밋,126.45865111236856,34.813957247194146
세종 철물안전공구할인마트,126.4598938275464,34.807419524908056
옥암주공2차마트,126.45063173132,34.8118814445299
한빛철물마트 남악점,126.46507545098588,34.81412717837063
와이마트 목포점,126.445572961027,34.8100340734779
맘마트 남악점,126.472563556364,34.8118495840007
SM마트 남악점,126.459843715627,34.8084000234414
근화플러스마트,126.471867799392,34.8073278565423
현대아이파크마트,126.456393597731,34.8118820821625
남악부영마트,126.472641551327,34.8121302568193
한우리마트고 남악점,126.475179262321,34.8098985494958
골드클래스마트,126.448355656451,34.8070540812872
옥암축산마트,126.45016785583,34.8112952441969
남악리젠시빌마트,126.466939934425,34.8102377170507
아이지에이마트 유탑점,126.467776836232,34.8140173353809
하나로마트 남악점 주차장,126.460652687028,34.8138976294062
소보루치킨마트 남악점,126.459776984922,34.8125966342319
복권판매점 주공마트점,126.45060108264,34.811888517331
나들가게 주공2차마트,126.4506109246,34.8118876603699
삼미유통 진로마트,126.44789058774089,34.80796418631441
이마트에브리데이 무안오룡점,126.48399197652,34.8050515559448
롯데슈퍼프레시 오룡점,126.484538160704,34.8080726572045
풍경마트,126.480079483567,34.8104712407613
롯데슈퍼 목포용해점,126.391425990968,34.8196419722467
늘푸른마트,126.394954735574,34.820622258402
G마트 주차장,126.391477514081,34.8194727681651
주공정마트,126.3945638884518,34.82041028969872
오토마트자동차매매상사,126.404193991652,34.8315692905559
대양마트,126.402708867608,34.8283206038589
하나로마트 목포점,126.429449524511,34.8190672425009
119식자재마트 석현점,126.419954798233,34.8282273792085
목포마트,126.421320120617,34.8199446667113
정마트,126.426481857576,34.8473065346471
블루빌할인마트,126.420619250908,34.8226328933345
사랑마트,126.421879161827,34.8194028822115
목포농협 하나로마트 주차장,126.422312394348,34.8240426114751
농협하나로마트 목포점 주차장,126.428797869447,34.8184656589264
오성마트,126.422431278942,34.826115479329
목포농협 하나로마트 전기차충전소,126.42211165583323,34.823361106007404
아이엠할인마트,126.417484290272,34.833198471763
영신마트,126.417250298004,34.8322743256859
남도마트,126.426472910657,34.8473353369504
석현마트,126.42275178846,34.825925905102
농협하나로마트 목포점 후문,126.427721706474,34.8193493771382
다이소 하나로마트목포점,126.429409854139,34.8191139289934
벌크커피 목포하나로마트점,126.429459653394,34.8190249244475
금호타이어 공단타이어마트,126.423844753687,34.8245330247375
롯데슈퍼프레시 목포옥암점,126.43807645078768,34.807670478175325
장난감할인마트,126.429422573895,34.8077564053829
형제낚시할인마트,126.430201688632,34.808246810003
행복한마트,126.440570389219,34.8096073523336
영암마트예향,126.439276376552,34.8089668132926
간판광고마트,126.428883747896,34.8136237676675
효성축산마트 옥암점,126.43776662034858,34.80791242422389
일로농협하나로마트 본점,126.49407402139236,34.84891169035287
일로마트,126.49502070605917,34.84840904129018
"영화떡방아간,영화마트",126.495471583286,34.8478069785742
사료할인마트,126.495704663355,34.8477763964072
일로농협하나로마트 본점 주차장,126.494296012817,34.849085681135
일로생활마트,126.494634551317,34.8493331687096
CU 무안일로점,126.49084804317911,34.85075419747279
파리바게뜨 일로농협하나로마트,126.494095072584,34.8490451841723
운남농협하나로마트,126.340378078204,34.9604471546931
소나무숲마트,126.383151734374,34.9689338947431
신월마트,126.29816400520907,34.96133725514478
황금농자재할인마트,126.34208693856334,34.961300104828574
광진마트,126.34293762088936,34.96158052891258
청운마트,126.342073656341,34.9613180602493
운남슈퍼마트,126.339491490668,34.960550500515
무안농협하나로마트,126.477723437656,34.9908607785063
롯데슈퍼프레시 무안점,126.473142725765,34.9864458966924
청계농협하나로마트,126.4296372459778,34.90907803056085
목포무안신안축협 하나로마트 무안점,126.47577175763,34.9932446072738
몽탄농협하나로마트,126.503447768194,34.9331074977228
와이식자재마트 무안점,126.47367804951756,34.98665553410143
서해안낚시할인마트,126.478131031239,34.9935990957562
서울낚시마트,126.47132134477,34.9937715395012
파군교마트,126.50276907117,34.8917455872746
은성축산마트,126.475767769181,34.9888882602886
주공마트,126.47359206343,34.9929016682554
무안낙지마트,126.390576904306,34.9276614371692
해태마트,126.476347266296,34.9895604805372
준마트,126.428769408745,34.9079913954717
승달마트,126.430682676681,34.9098031361385
A마트,126.4708279217526,34.98193888230922
이천마트,126.480375072852,34.990699093058
한아름마트,126.488087942584,34.9924877323757
태봉종합의류마트,126.473490139353,34.9876083712022
은혜마트,126.48924798917716,34.99141277422802
장수고기마트,126.473319700574,34.9875427331716
청계세탁마트,126.429569157727,34.9081646115294
패밀리마트,126.474097191382,34.9879066522657
CU 무안중앙점,126.474101572281,34.9879066712418
CU 목포대하늘점,126.433820728256,34.9104631850771
뉴빅마트,126.479181268114,34.9889597377412
백련헤어아트,126.46977726762,34.9872641139867
북신안농협하나로마트,126.20590854564608,35.05773115402436
임자농협하나로마트,126.10914145434252,35.08528078941476
24그린마트,126.211128690193,35.0599897355674
코사마트 임자점,126.111841134889,35.0845696118198
황토원예마트,126.21447463217169,35.05858011329149
신선마트 지도점,126.21023521148864,35.059428692802044
영찬마트,126.09946210220428,35.08989892251684
CU 신안조선점,126.205215524068,35.0579825972202
CU 신안지도점,126.210914667772,35.0594475363085
이디야커피 신안임자하나로마트점,126.109180251053,35.0852423171017
무안농협하나로마트 해제점,126.293550781188,35.1107496845235
무안농협하나로마트 현경점,126.411028783463,35.0214435636109
무안농협하나로마트 망운점,126.392798358014,35.0122823976014
서영광농협하나로마트,126.37478444318842,35.217684774857204
무안농협하나로마트 서부점,126.380984152618,35.0500077613615
손불농협하나로마트,126.431092670935,35.1428185330382
서영광농협하나로마트 군남점,126.453837124131,35.2420454452636
영광농협하나로마트 불갑점,126.507323021579,35.2102882902968
목포무안신안축협 하나로마트 해제중앙점,126.29434376865846,35.113555678638654
영광농협하나로마트 군서점,126.478202982005,35.2554602401346
마산활어회마트,126.34614820533622,35.07027583852367
신선마트 현경점,126.410711075467,35.0211319521487
신선마트,126.431277541565,35.1421127446811
소비자마트,126.300094818984,35.1130554257724
미니할인마트,126.371952513373,35.216886858423
부안할인마트,126.372496895614,35.2169365506024
대흥할인마트,126.294171039329,35.1146326793924
현경종합가전마트,126.411184631447,35.0211018015693
염산할인마트,126.37232301165,35.2172673396903
신선마트 전기차충전소,126.431243576088,35.1421053744884
CU 무안현경점,126.41207574912,35.0209042162827
황토원예영농조합법인,126.40889267640156,35.02106902709411
영광농협하나로마트,126.506489260126,35.2768719862514
영광축협하나로마트,126.50320714706363,35.27454844146726
해리농협하나로마트 상하점,126.49004845740792,35.44379997237604
굴비골농협 하나로마트,126.4437571291278,35.360737298942205
백수농협하나로마트,126.4190515524361,35.28112913349284
굴비골농협하나로마트 홍농점,126.446616240651,35.3964270982831
조은마트,126.503502339854,35.2706622106428
와이식자재마트 법성포점,126.45322115958837,35.355908872780226
영광존마트,126.500937541996,35.2745418043286
수협바다마트,126.438027448175,35.3614588831666
코끼리마트,126.40065842621,35.28253380046453
감집홈마트,126.503125715982,35.2783436114107
낚시마트,126.501760424958,35.2751364692068
새영광할인마트,126.496097329056,35.2688253273709
광주마트,126.436147974478,35.4454313806428
영광농협하나로마트 주차장,126.50614264151,35.2771175364518
중국식품마트,126.504847153626,35.2750662196218
빛고을마트,126.499791213661,35.28293746939746
신평마트,126.48538592851853,35.28225422690162
마운틴할인마트,126.447115999535,35.3606112053074
풍년농약할인마트,126.501716456909,35.2737013689783
들녘마트,126.50969084687,35.3779918831376
천냥마트,126.502461597604,35.2762245573417
형제농약종자마트,126.502584718523,35.2762214583049
중앙민박마트,126.407886901186,35.397108729064
광문마트,126.447886056825,35.4000453597814
대발마트,126.497597995811,35.2707027325611
형제마트,126.448899680892,35.3558928502318
상하마트,126.49254785469,35.4435725587462
백산마트,126.503043799854,35.2777186527961
정성마트,126.436347719771,35.4464814295051
진성마트,126.490364287996,35.4440176192753
현우마트,126.503010540614,35.2734471085211
정성마트민박,126.436347770042,35.4464742193202
뷰티마트 영광점,126.504606379842,35.276702051095
초린마트,126.511225269933,35.2758006025879
(주)옥당마트,126.509059471401,35.2764353835205
CU 법성중앙점,126.447212755435,35.3567468048571
변산농협하나로마트 격포점,126.472339547149,35.6240722559805
변산농협하나로마트 위도점,126.293035402652,35.6042664947805
채석강마트,126.471493278998,35.6295474119287
해성슈퍼,126.491018952452,35.8412487452286
격포마트,126.473228958124,35.6271477024924
서해굿마트,126.41057869129224,35.81401772611552
영할인마트,126.4129265054538,35.812534046774026
대한철물마트,126.473599885981,35.6217560770797
선유마트,126.411496821289,35.8137518504876
민마트,126.47762542771284,35.60395169206496
마트랜드,126.41231986334157,35.81317547408732
씨에스타마트,126.414210219957,35.80768348719306
변산농협하나로마트 격포점 주차장,126.472507119304,35.6242730734858
행복 마트,126.48934333722504,35.84156608527311
청솔마트낚시용품점,126.51023743923,35.5825966277218
좋은상품좋은마트,126.471866021619,35.6275923738785
슈퍼낚시마트,126.285690777451,35.6086466146052
명동수퍼마트,126.472521866869,35.6218595155095
훼미리마트,126.471009476865,35.6295894510241
수협바다마트 격포지점,126.47024342366,35.6225489102444
격포LA마트,126.470881871887,35.6241595956845
안면도농협하나로마트 고남점,126.4072208107198,36.423817789492105
오천농협하나로마트 원산도지점,126.424781861082,36.3680317333519
해동낚시마트,126.509827549848,36.3240516575989
안면도하나마트,126.34942646412658,36.50689543835831
중장마트,126.369151772329,36.4729192252936
청남낚시마트,126.4231693346113,36.40034504058784
꽃지해변마트,126.336812854864,36.5011226684666
어항마트,126.509186465308,36.3254116032532
해변마트,126.339429403012,36.5016210973964
고남청솔할인마트,126.4069781078751,36.42347414523055
머드마트,126.508886355533,36.3263836391746
딴뚝마트,126.350123805372,36.5073344899689
동백정낚시마트,126.50541168507355,36.14694550555477
중앙DC마트,126.509028155009,36.3186917904707
거성마트,126.39525940432728,36.43762205811338
뉴항구마트,126.505490039864,36.3259623051549
전망대낚시마트슈퍼,126.41557535880408,36.46659163363872
선진낚시마트,126.433908222579,36.3815062745816
안면낚시마트,126.427735169047,36.3999074140373
유람선마트낚시,126.509516611295,36.3269314377455
차부마트,126.426219700242,36.4007400239144
바다마트,126.504395558605,36.3271509268981
독바위수산마트,126.48420810792022,36.50731552735606
안면도농협하나로마트 고남점 주차장,126.407250979635,36.4236629405247
바바라코코스마트카페 대천해변점,126.51018167521823,36.31586773128683
고남자재마트,126.406303464993,36.4230382379605
LG마트포장마차,126.509441523996,36.3167000864701
한주낚시마트,126.431579047585,36.4176209260898
어만낚시마트,126.509568972371,36.3255068954969
부여마트,126.43381914377,36.3824178293515
CU 보령발전소점,126.500619033174,36.3967270765224
오션캐슬 그린마트,126.33701152992268,36.48829152096548
나들가게 광장마트,126.5080551414746,36.31936006708538
소원농협하나로마트,126.19625009067636,36.75895356367667
근흥농협하나로마트,126.229505627563,36.7148971704918
근흥농협하나로마트 안흥점,126.14858190108178,36.68229644243625
365일할인마트,126.19688308726656,36.75903623326484
신흥민박마트,126.15307202294106,36.68092634889593
365 할인마트,126.137151497892,36.6790810319085
서산수협 바다마트,126.13768337377496,36.67773503438646
미끼마트 유원 편의점,126.197832815075,36.700057658891
탑바다낚시마트,126.153224048834,36.6796109193135
부산마트,126.209043925939,36.6949747544394
신항두배로마트,126.136920880096,36.6792956249603
소원농협하나로마트 주차장,126.19596056777,36.7590101785765
연포이레마트,126.2089249749107,36.69511723966082
25시관광마트,126.134851178279,36.6818974034151
등대마트,126.209572029776,36.6945421273552
청포마트,126.209034523785,36.694581810636
안면도농협하나로마트,126.34588121529976,36.51949830534816
남면농협하나로마트 청포대점,126.312312340476,36.6254371759464
태안 로컬푸드 직매장,126.3157449910438,36.61197255561808
롯데슈퍼 안면도점,126.34337837347644,36.51404167809855
킹스마트 (휴업중),126.346095619585,36.515379476348
리슈채 슈퍼,126.33053893600808,36.51264743967067
백사장하나마트,126.322063360635,36.5827653569057
하모니마트 서산부석점,126.373370994002,36.6271220308975
한농마트,126.324145180699,36.5828708962366
방조제낚시마트,126.37378341858,36.6269980420204
안면행복낚시마트,126.318792297165,36.6012666444764
백사장마트,126.315236413978,36.5814935916466
안면도농협하나로마트 주차장,126.345860094926,36.519487375866
안면도장터마트,126.345998828264,36.5167991400744
삼봉마트,126.316312505639,36.5713440566201
백사장홈마트펜션,126.318766672902,36.5759556636326
중앙낚시마트,126.354432679423,36.6227748309869
대원낚시마트,126.354393742408,36.6215454880588
또와요마트,126.331532265316,36.5248724332768
해피마트,126.344483631522,36.5206657166382
수산물마트,126.31774175912,36.5860316148413
굿모닝마트(주),126.346087568394,36.5152749001249
참좋은마트,126.315723256322,36.5848206445563
펜션마트,126.284495034195,36.6220644864068
대명마트,126.31661209966173,36.57233701593277
쉬리마트낚시,126.34993400876,36.532161616111
남면농협하나로마트 청포대점 주차장,126.312393462127,36.6257440250706
일출봉마트,126.31459134381728,36.59000282584617
송림마트,126.345392054663,36.5177942729786
남면농협 청포대 간이지점,126.31229083089264,36.62534153301116
CU 안면승언점,126.344895955221,36.5215510969562
의류할인매장,126.315084180303,36.6108585761606
광천슈퍼,126.318049781113,36.5858207116509
아부찌부대찌개 청포대하나로마트점,126.31226694882508,36.6256387649112
홍성서부농협하나로마트 광리점,126.50386172431486,36.5979256464316
홍성서부농협하나로마트 남당점,126.47103356656746,36.54015678085161
남당항마트,126.47233093152,36.5395425433962
IGA마트,126.464827194493,36.5760412405093
효마트,126.4569669334438,36.59140246557496
천수만낚시,126.463302849101,36.5935308030991
태안남면농협 하나로마트,126.2949405013206,36.67534035555601
그린농축가할인마트,126.29414215217044,36.67713424525016
그린농축가식자재할인마트,126.294171467576,36.6771091878875
깨비왕식자재마트,126.29414215217044,36.67713424525016
태안남면농협 하나로마트 주차장,126.294819393994,36.675494629711
한일마트,126.29654852959,36.6741820240122
청포대마트,126.302648367001,36.6387454992255
마린마트,126.291147953432,36.7560100581318
교운마트,126.290423907903,36.7582657000005
태안농협하나로마트,126.3062436162388,36.749293917771766
롯데슈퍼프레시 태안점,126.319443622602,36.7521779784614
홈마트,126.30306884702,36.7529122099213
그린농축가마트,126.30962519225756,36.748929715686174
태안마트,126.302310275692,36.7560544076375
서민갑부반품마트 태안점,126.302355540499,36.747097729084615
태안농협 하나로마트 주차장,126.305901774937,36.749328869435
태안농협농자재마트 농기계수리센타,126.30630332373592,36.748631956181605
주류마트,126.304008499419,36.7450871380214
이불마트,126.306622593816,36.7492384561882
하나로마트김밥천국,126.306345395017,36.7491827745258
홈마트식육점,126.30305903821817,36.75288241614182
365가전가구마트 태안점,126.302363337386,36.747102280304
미니마트,126.303224919614,36.7480363641803
CU 태안터미널점,126.302954631286,36.7482077926947
CU 태안읍내점,126.302801182477,36.7513066821922
뚜레쥬르 충남태안하나로마트점,126.306345232798,36.7492007956117
부석농협하나로마트,126.39260985705543,36.71417231851429
서산농협하나로마트 인지점,126.426552343776,36.7530163080987
서해농자재마트,126.492173764723,36.7577983805866
차부킹마트,126.426807039391,36.7543043159433
서해기계공구마트,126.491912364012,36.7580387618738
서해배관건재마트,126.491920606512,36.7595058023792
장동철물 공구마트,126.49055695294014,36.74013511321107
산호마트,126.422897888165,36.7547251606196
효자마트 부석정유소,126.392212609324,36.7123140014679
푸른솔마트,126.489311269211,36.7388808333672
테크노가구마트,126.427424617825,36.7555868609148
코사마트,126.489306671476,36.7388988358734
DH라이프마트,126.44887696124,36.7455200504758
코사마트 아진점,126.428410565914,36.7579380826482
원북농협하나로마트,126.257432305775,36.8232458089236
미소마트,126.1408693608834,36.78424666841994
화양제이마트,126.139915480929,36.7719642652427
종합마트,126.13617222740308,36.7757541496903
경남마트,126.144007877956,36.7867031298352
한성플러스마트,126.20573870776474,36.89398167151202
원북농협하나로마트 주차장,126.257174110804,36.8225918086134
이변마트,126.20948605781037,36.89808312141027
랑데부펜션마트,126.205923664019,36.8990856883724
공구마트,126.256262275415,36.8158207377153
럭키마트,126.25751491835324,36.82107560401678
57마트,126.19077106905408,36.840581058207626
겨울연가마트낚시,126.205689888406,36.8983677723412
CU 태안만리포점,126.14341406969532,36.786104138146406
태안365할인마트,126.27912975563132,36.779092449584574
태안농협하나로마트 서부점,126.29270326288304,36.75627252276119
일성마트,126.296138848035,36.7569011382357
코사마트 남창점,126.29386754715,36.7569237244298
금영마트,126.308727906696,36.7941326114541
서산농협하나로마트 팔봉점,126.34968578585276,36.81029227819843
대문마트,126.367391769133,36.785531012025
굿마트 태안제일낚시점,126.340947876096,36.7604756302086
원북농협하나로마트 이원지점,126.278791704194,36.8699525892559
왕산포종합마트,126.368185214569,36.8732836430501
아이지에이마트 서산점,126.41605491979324,36.768705763286846
서해낚시마트,126.416972010612,36.7682921487276
롯데마트 서산점,126.4392089417498,36.77342180231256
이마트에브리데이 서산예천점,126.44649580476258,36.76930183391696
L마트 서산점,126.44541326396998,36.76300346922741
자동차병원타이어마트,126.44013364957192,36.77333784943341
에어컨마트,126.442844278015,36.7721070504756
호수공원마트,126.446267577316,36.7745605219305
싸군마트(서산점),126.446085056219,36.7742406811833
롯데마트 석사점 야외주차장 전기차충전소,126.43892550351356,36.773735852442016
롯데마트 서산점 주차장,126.438821904089,36.7738110565651
롯데마트서산점 B주차장,126.439668357922,36.7726291928231
롯데마트 문화센터 서산점,126.43934168395452,36.77318994300356
롯데마트 서산점 전기차충전소,126.43955356002604,36.77270434486047
다이소 롯데마트서산점,126.439269211587,36.7732977339801
롯데하이마트 서산롯데마트점,126.438972828224,36.7733900515154
아디다스 롯데마트서산점,126.439264731276,36.7732977128627
탑텐 롯데마트서산점,126.439151666726,36.7734422577146
탑텐키즈 롯데마트서산점,126.439011604231,36.7734488061629
크록스 롯데마트서산점,126.439051023673,36.7734192555922
정관장 롯데마트서산점,126.43933626533156,36.77331877541388
플레이타임 롯데마트서산점,126.439309534385,36.7732979240293
더페이스샵 롯데마트서산점,126.43921995442,36.7732938973848
못된고양이 서산롯데마트점,126.438298335397,36.7737220796381
롯데리아 롯데마트 서산점,126.439079699337,36.7734806659054
토니모리 롯데마트서산점,126.439200276462,36.7733812117628
공차 롯데마트서산점,126.439059918659,36.7734283085784
두쏠헤어 롯데마트 서산점,126.438970266332,36.7734341935536
감탄떡볶이 롯데마트서산점,126.439399455529,36.7732550947789
한국후지필름 롯데마트서산점,126.439341473983,36.7732187773591
비욘드 롯데마트 서산점,126.43934089851992,36.77314398297054
롯데ATM 롯데마트 서산1층 2,126.438130002835,36.7734581622379
롯데ATM 롯데마트 서산1층 3,126.438130002835,36.7734581622379
민팃ATM 롯데마트서산점,126.438298335397,36.7737220796381
체이스컬트 롯데마트 서산점,126.439107937664,36.7734483592834
에드윈 롯데마트 서산점,126.4390766738992,36.77343469531183
세창할인마트,126.431319773257,36.7855762788934
이마트에브리데이 서산읍내점,126.442563723239,36.7823746280741
365가전가구마트 서산점,126.44467940659467,36.77857294514763
대동마트,126.442985598418,36.786013546255
애플마트,126.442694773104,36.7779058581876
캐슬 할인마트,126.441475497136,36.7792121470524
성연농협하나로마트 테크노밸리지점,126.44607404555424,36.82244953583708
더드림문구마트,126.439704621064,36.8151865821859
서산플라워마트,126.434522216274,36.7918920510554
노브랜드 서산예천점,126.452050008966,36.7685381761734
서산농협하나로마트 본점,126.45304639614338,36.76639452438069
GS더프레시 서산석남점,126.452911607725,36.7702326156088
롯데프레시 서산예천점,126.449583248851,36.7729836564857
우리홈마트 서산점,126.461772082063,36.7736575838516
싸군배터리할인마트,126.452949082246,36.7693722320485
하이츠마트,126.46852626687384,36.76751356999509
OK한우할인마트 석림점,126.46333618670972,36.77391966276798
G마트,126.46817686215644,36.77010178851821
신주공과일마트,126.463763290297,36.7733890353399
석남동34-97(조이할인마트 앞) 노외무료공영주차장,126.454697003918,36.77244671864
서산농협하나로마트 본점 주차장,126.453712239527,36.7663164839936
디에이치라이프마트,126.46170369135,36.7674180171758
CU 서산호수공원점,126.448594039161,36.7731610988494
CU 서산서궁팰리스점,126.45850642819136,36.77484303663579
CU 서산석림점,126.461051229098,36.7748654059102
CU 서산석림초교점,126.464173221303,36.7704965305826
뚜레쥬르 서산하나로마트점,126.452870091657,36.7666171880582
사랑예감 서산농협하나로마트점,126.453023535752,36.7664592989267
비티알 서산하나로마트점,126.453057531948,36.7664035866355
이마트 서산점,126.478689426396,36.7883596554271
하나로마트 충서원예농협,126.47315240042428,36.78709714302728
진로마트,126.460054657308,36.7839178882313
왕마트,126.47945180297864,36.78629135587792
서산마트,126.45871508173114,36.78403885581132
월드마트 동문점,126.45996650119744,36.78402832381448
우리낚시할인마트,126.48486974903822,36.7867727033445
동부DC마트,126.460886369462,36.7881685615101
대륙마트,126.460939994095,36.7817925948128
OK한우할인마트,126.465525156218,36.7848554120593
코아루할인마트,126.465724626463,36.7858150826342
별이네마트,126.460500051077,36.7791909143097
늘푸른마트 음암점,126.50748738377013,36.78841209477769
코사마트 주공마트,126.464207402832,36.77781726528
월드마트내정육점,126.459977463317,36.7840626155247
CU 서산중앙병원점,126.503442208626,36.7810620805532
에버빌마트,126.457965559375,36.7912046196429
두리마트,126.45198711516775,36.82156862825612
코사마트 훼미리DC점,126.459597106503,36.7911651861211
다나와 서산센터,126.457424839794,36.789079156219
신농마트,126.475841942569,36.8063872128041
지곡농협하나로마트,126.435789108739,36.8616933835564
트리플비,126.444599117002,36.8443005344146
장보리마트 지곡점,126.444599117002,36.8443005344146
코리아마트 2호점,126.438186478762,36.8733603423035
성연농협 하나로마트,126.46362864893264,36.83704488933963
월드아시아마트,126.46017164105,36.8543861253507
우리할인마트,126.45026112615687,36.82359533947072
스팟마트 동희오토매점,126.479862606437,36.8320663719508
번영회마트,126.293135612792,36.93554262355
CU 대산공단점,126.376115493518,36.9896979369263
대산농협하나로마트,126.428663871544,36.9420324990237
대호지농협하나로마트,126.505261318347,36.8994341779872
농민마트 명지점,126.409929503214,36.9694885842
대박마트낚시,126.45175150024382,37.00363428486271
대산큐마트,126.433721741395,36.9381532482279
대산홈마트,126.431816177086,36.9396002914647
다을낚시할인마트,126.428060356032,36.9469305588365
휴먼시아마트,126.437410110039,36.9409352884472
드림마트,126.431643334496,36.939898622726
조이마트,126.505961426912,36.9884531340527
대산컴퓨터마트,126.435854515966,36.9363287997226
홈마트정육점,126.43179386078,36.9395821631173
대호유통마트,126.41227309398629,36.96964438007671
대산농협하나로마트 주차장,126.429091673953,36.9418687578017
153대호할인마트,126.504417556878,36.8994414746854
풍림마트,126.440038600164,36.9302717132293
농민마트,126.435130385928,36.9375616393307
CU 대산중앙점,126.434063362158,36.9387099414908
CU 대산점,126.43580255732932,36.93652498831374
CU 대산대로리점,126.41029784296111,36.96876054446089
주연테크 대산점,126.43585359275689,36.9363017629424
뚜레쥬르 대산하나로마트점,126.42872979872872,36.94207336470071
옹진농협하나로마트 덕적점,126.15408970833154,37.226799591680745
CU 덕적도점,126.11663330914,37.2239311895103
인천옹진농협 하나로마트 자월점,126.30549853114648,37.25364017447436
이마트에브리데이 영흥도점,126.466700695894,37.2534884590694
백령할인마트24시,126.49395187774704,37.25833488855368
한국마트 영흥점,126.49657800537608,37.255175345521856
수협영흥마트,126.496613781455,37.255219648302
도깨비마트,126.300467249072,37.1662176401818
24시마트,126.46283063734714,37.02081607734994
소망마트,126.306953483375,37.2537892598651
에너지마트,126.45055443576824,37.24299147965652
옹진농협하나로마트 영흥점,126.49394105361186,37.26044145837879
십리포마트,126.48577220409264,37.28125162101709
일출공원마트,126.492925176404,37.2727596291942
또바기마트,126.482712503155,37.2805030494003
해송빌딩 해송마트,126.45292146425,37.274751198284
용애마트,126.37062085687532,37.46121120499914
구봉낚시마트,126.371530461245,37.4575985387644
24시할인마트,126.373890263734,37.4462260375447
개성마트,126.375057588796,37.4455510596077
고바우마트,126.36693861039488,37.46238806058361
SM마트24편의점,126.371558302565,37.4491383062327
민지네24시마트,126.373063207429,37.447832641264
CU 을왕리점,126.37330278512,37.4467491079144
CU 더위크앤리조트인천점,126.370711591984,37.4506528859499
중구농협하나로마트 용유점,126.401759764678,37.4442728618558
CU 무의도점,126.4132150170749,37.40489419430842
마켓플레이스,126.461336543626,37.4403571207478
K마트,126.46087017585444,37.43905304240923
롯데마트 영종도점,126.49119355663548,37.49265022305256
이마트에브리데이 인천영종점,126.506411528645,37.477180649764
그랜드할인마트,126.4846458297902,37.492729960959565
파워마트 운서점,126.489469630584,37.4934068318699
주공할인마트,126.500797207636,37.4843263205446
삼안마트,126.486137081846,37.4896289148097
생활용품DC마트 운서역점,126.495335613925,37.490460544081
하이파킹 롯데마트 영종도점 주차장,126.49079843881844,37.49272060049614
롯데마트 영종도점 주차장,126.491216000322,37.4926755476556
롯데마트 영종도점 전기차충전소,126.4912507659069,37.49255135965719
롯데마트 문화센터 영종도점,126.491229593661,37.4926720022055
다이소 롯데마트 영종도점,126.49138257362333,37.49262400703847
CU 인천공항점,126.45111953746712,37.44928591453042
롯데하이마트 영종도롯데마트점,126.491329709902,37.4925823335266
오토오아시스 롯데마트영종도점,126.491229593661,37.4926720022055
루미가넷네일존 롯데마트영종도점,126.491211477358,37.4926755281764
생활용품할인점,126.489990056613,37.4927026974421
누베하우스,126.507875685709,37.4849218448377
더페이스샵 롯데마트영종도점,126.49103554640652,37.49260629451216
소담촌 영종롯데마트점,126.491231873478,37.4926693090298
못된고양이 영종도롯데마트점,126.491065458926,37.4926974241709
보네스뻬 영종도점,126.491251670692,37.4927513850992
시호비젼 롯데마트 영종도점,126.49132068842624,37.492578690690245
롯데ATM 롯데마트 영종도1층 6,126.491307266204,37.4925570089447
콜핑 롯데마트영종도점,126.491234141071,37.4926684177974
더카페 영종도롯데마트점,126.491216000322,37.4926755476556
민팃ATM 롯데마트영종도점,126.491216000322,37.4926755476556
체이스컬트 롯데마트 영종도점,126.491234141071,37.4926684177974
롯데ATM 롯데마트 영종도1층 5,126.491307266204,37.4925570089447
서강화농협하나로마트 주문점,126.242125455362,37.6437635825038
주문도마트앤민박,126.23562574479,37.6539890195439
옹진농협하나로마트 북도점,126.337026329082,37.532837373267
갈매기장터,126.33816882375416,37.53298703845506
야영장마트,126.371591041229,37.5307991226105
강화남부농협하나로마트 화도점,126.417440531869,37.6327117681585
옹진농협하나로마트 시도점,126.430479240343,37.5314690054846
예스마트 동막해수욕장점,126.456887207633,37.5935452085757
산뒤마트,126.494766691593,37.6006401860792
이레착한마트,126.455060620257,37.6103382646369
마리산마트,126.4184648589559,37.63326821738633
강화남부농협하나로마트 화도점 주차장,126.417293803846,37.6327867253915
다올파티룸&마트,126.405518791868,37.6297691860367
CU 강화동막점,126.455993151001,37.5937933658959
삼성건축자재백화점,126.50268605328296,37.51935063264008
대흥슈퍼,126.417853567534,37.6332075404842
나들가게 메밀꽃마트,126.423276090072,37.6340252261686
서강화농협하나로마트 외포점,126.380926994242,37.7029129766178
서강화농협 하나로마트 내가지점,126.3819175724907,37.7032461234299
서강화농협하나로마트 삼산점,126.323322941546,37.702827107038
싱싱마트,126.38070296331,37.7020360653481
석모도 마트,126.35367418283,37.6665191862287
석모도마트,126.3208772876407,37.704785245016005
0시할인마트,126.379362269612,37.7012650004677
외포리할인마트,126.381486869947,37.7010383103624
정포할인마트,126.379112785945,37.7012672908748
황금젓갈수산마트,126.38006013387302,37.70161374005922
강화남부농협하나로마트 양도점,126.421707341118,37.6621873284775
조산마트,126.435905801027,37.6531995261439
화도공구마트,126.404797943479,37.6354957423014
H편의마트,126.41842536793,37.6962899056808
강화남부농협하나로마트 본점,126.494237075382,37.6380429548204
플러스마트 길상점,126.492897094097,37.6378281765143
배다리낚시마트,126.4909065195378,37.642137078837735
강화온수농자재마트,126.492311038685,37.6413700944329
강화남부하나로마트 주차장,126.494014023952,37.6378545954184
강화농협하나로마트,126.48712375280404,37.738212516191645
강화농협하나로마트 선원점,126.484379338248,37.7135159782294
방실슈퍼,126.488675862881,37.7482559515138
플러스마트 강화점,126.488125625453,37.7386907763574
경원식자재마트,126.48415583577864,37.74639649743224
청호마트 강화점,126.50303715090324,37.74079075888368
영남마트,126.475609634125,37.7490003955447
강화할인마트,126.482742372497,37.7479868022075
강화안경마트,126.48629798996888,37.74639864552554
사거리마트,126.502434229318,37.7427270823695
강화마트,126.46473694235952,37.74259075231341
강화가구마트,126.48497687525187,37.727461895387016
세광할인마트,126.479160725856,37.7234721085437
인성천원백화점DC마트,126.49093080790256,37.74091027766008
휴대폰할인마트,126.487026142021,37.7461099060225
종합가전할인마트,126.484852501731,37.7450859457199
CU 강화신문점,126.482282889925,37.747491059353
CU 강화중앙점,126.48691262348848,37.74546072117837
CU 강화병원점,126.49537984231004,37.74167179972373
크린토피아 하나로마트 강화점,126.48711449061652,37.73823950470647
경원부식,126.484120679636,37.7462305670762
그린존 강화농협하나로마트,126.48727839323304,37.73783298358603
서강화농협하나로마트 본점,126.411220344987,37.7735662662564
강화농협하나로마트 송해점,126.46338536993952,37.76525719636912
서강화농협하나로마트 양사점,126.409042168696,37.7979494932166
서강화농협 하나로마트 교동점,126.278934129757,37.7825071832325
수정농자재마트,126.27870385139865,37.78225711295064
강화농협 송해지점,126.4632277025764,37.76540243311016
서귀포시축협하나로마트 신시가지점,126.51954507529726,33.25041813974681
명보철물건재마트,126.53931075359,33.2550082851894
서귀포수산마트,126.561198175878,33.2413285623829
준영마트,126.56520836197905,33.24188001739782
CU 서귀포항점,126.564350335003,33.2409429248234
CU 서귀포부두점,126.56275431150848,33.23996987385178
나들가게 준영마트,126.565193849381,33.2417771806725
펫마트 서귀포점,126.5524036747947,33.25235842503034
대흥마트,126.598928728485,33.2430933121903
덕성마트,126.599783250266,33.2439435996188
서귀포농협하나로마트,126.58006454892292,33.257421083916334
제주감귤농협 하나로마트,126.57631923598,33.2527415421222
서귀포시축협 하나로마트,126.588454791288,33.2571497931155
코리아마트 동홍점,126.56997958534797,33.252681012241155
플러스마트 2호점,126.572473022894,33.2510152813993
나드리마트,126.57184441762172,33.25756977254197
동홍코사마트,126.56966699851664,33.258655031277485
뉴월드마트로 동홍점,126.574384133504,33.2552342534125
미소정육마트,126.57635541817162,33.25502819986095
서귀포농협 하나로마트 본점 주차장,126.580267705947,33.2578013560165
풀러스마트,126.572455840552,33.2510179272223
용신공구마트,126.570264782748,33.2549243519825
365정육마트,126.574543921977,33.2585780434635
동홍정육마트,126.570923012855,33.2528673017983
코리아마트 동홍점 주차장,126.570299470076,33.25309957270304
인테리어 마트,126.568033164975,33.2495861827975
나드리마트 주차장,126.571899267354,33.2577656149959
코리아마트 전기차충전소,126.57064263224896,33.253147642714985
코리아마트베이커리점,126.570001175276,33.2526549396178
그린생활마트,126.571745514394,33.2523255522165
코리아마트 기타식품판매코너,126.569988245168,33.2526657144717
서귀포농협 하나로마트 전기차충전소,126.57984082528904,33.25797483061305
훼밀리마트 정방폭포점,126.573223840233,33.2449048018703
챔피언스포츠,126.5755377627556,33.254568285208464
뚜레쥬르 서귀포하나로마트점,126.58031250750813,33.25740929819627
IBK기업은행365 나드리마트앞,126.571753480957,33.2577317527266
IBK기업은행365 코리아마트앞,126.569961695974,33.2528279161004
산림마트,126.51328318867854,33.260565945711235
서귀포시산림조합신서귀포지점,126.5129642087664,33.2606088763557
무지개마트,126.556384430427,33.2637052604668
홈플러스 서귀포점,126.55992833383172,33.26048551605321
서귀포중고마트,126.57216790277644,33.26518063496665
서홍마트,126.557289277596,33.2573024153138
디앤씨마트 서귀점,126.567595012573,33.2557554164258
서귀주방사무용가구마트,126.57212834213796,33.26514984346884
금성동홍스마트빌아파트,126.567447139338,33.2570171835048
반석마트,126.570354034164,33.2638760354183
CU 서귀포주공점,126.560277761699,33.2622864026251
서귀포농협하나로마트 토평점,126.5894138223,33.2714528057551
제스코마트 서귀포지점,126.595776163791,33.2629262088776
제남마트,126.590289055213,33.2679068826527
제스코마트 서귀포점 주차장,126.595530060476,33.2632310611046
금강전기조명자재마트 서귀포점,126.584447195924,33.2640321296049
플러스 제남마트점,126.590263296442,33.2679067977682
효돈농협하나로마트,126.61716800968236,33.26094540554149
위미농협하나로마트 신례점,126.63037256187,33.2897978323718
위미농협하나로마트 하례점,126.6261333065,33.2688349057566
효돈농협하나로마트 주차장,126.617173281297,33.2609670609179
코사마트 미광마트점,126.61770004519194,33.2627340750532
세원마트,126.617375672583,33.2627925849671
CU 서귀포효돈점,126.621504051962,33.263126200754
위미농협하나로마트 하례2리점,126.609475939332,33.2976646352238
위미농협 하나로마트,126.66162241064556,33.27522994273574
남제주할인마트,126.717441351703,33.2784493170027
형수마트,126.714984673598,33.3103505865826
크로바마트,126.720345267668,33.2793719418678
남원농협하나로마트 주차장,126.721070714762,33.2841603353972
코사마트 의귀수퍼 형수점,126.714965462257,33.3103144774121
한진수산마트,126.66430571047,33.2752768889897
위미농협 하나로마트 주차장,126.66164461904,33.275037955815
위미농협 하나로마트 전기차충전소,126.6609486239656,33.2745960637723
남원농협 하나로마트 전기차충전소,126.72173767953927,33.28439805769021
CU 남제주점,126.718285207001,33.2790751616667
CU 제주위미점,126.668729364035,33.2749389223278
CU 서귀태흥점,126.75753258904636,33.29297722543931
투썸플레이스 제주남원농협하나로마트점,126.72163892624052,33.2843951316906
다모아마트 오등동점,126.52738444321882,33.4747151961199
탐나마트 방선문점,126.5397846431752,33.47469874532262
아라마트,126.546414367477,33.470491085997
나우리마트,126.545973694768,33.472271029188
용마트 본점,126.549700489001,33.4741058503765
진일마트,126.54412171097648,33.47236971872024
거북이마트,126.546920158029,33.4768663257833
엘케이웨이 첨단마트,126.572449168178,33.4545639900514
세계로마트 아라점,126.5497571838869,33.476435783049446
펫마트 제주아라점,126.54580532859356,33.474848980032434
상록마트,126.571804591246,33.4719085462336
하나휴게마트,126.558343157785,33.4500353927827
나들가게 하나마트,126.558376558171,33.4500237909316
뉴월드마트 신제주점,126.493386051922,33.4854000204718
제스코마트 신제주점,126.497063502926,33.4872975244885
유드림마트 오라점,126.51340064664302,33.49204382045502
ABC마트 MS신제주연동점,126.49047682738,33.4861021549385
오라마트,126.51197192873204,33.48815774586829
라온마트,126.495612089273,33.4921061277047
신제주마트,126.49050564183592,33.48485627260959
킹마트,126.493279744663,33.4918297412058
조끄뜨레마트 연동점,126.49010992054168,33.47894019527107
뉴그린마트,126.499895048275,33.4918710409693
참조은마트,126.502234725043,33.48767272909
뉴월드마트,126.493996004709,33.4859759253044
수협바다마트 제주점,126.49573333223609,33.489382010133006
제스코마트 신제주점 주차장,126.496807360363,33.4873073038238
가스할인마트,126.510074631249,33.4887849811896
에이스마트,126.491299274295,33.4808799017503
뉴월드마트 신제주점 주차장,126.493369860154,33.4855937966949
인쇄할인마트 제주지점,126.495339361733,33.4847696622973
노빌마트,126.497010067303,33.4913292282595
기쁨두배한라마트,126.490565782121,33.488551245068
더플러스마트,126.495619600544,33.492109764645
오라마트 주차장,126.512016265317,33.4883102897175
CU 신제주점,126.493142128204,33.4895932305875
CU 연동세일점,126.4983159960322,33.485797842899736
CU 제주연동점,126.49039477347,33.4839452082229
CU 제주스카이점,126.492784527712,33.4859637601787
CU 제주제원점,126.490289175001,33.4880127588083
노브랜드 제주아라점,126.538198840742,33.4836240561874
제스코마트 본점,126.52901804870427,33.48019319835712
마트로 센트럴점,126.537149611636,33.4907373305379
도남식자재마트,126.530611849527,33.4938845456085
펫마트 제주도남점,126.52840126888916,33.492356065835274
우리올레마트,126.534987303709,33.4854044185891
제스코마트 본점 주차장,126.529080318246,33.4802177780426
뉴월드마트 이도센트럴점 전기차충전소,126.53699036137344,33.49073673562985
제주마트,126.527666715025,33.4932746965855
세탁마트,126.529816600722,33.4897089553017
도남식자재마트 주차장,126.530444803348,33.4939316971781
마트로 센트럴점 주차장,126.536816709302,33.4906116666942
도남크리닝마트,126.528108420599,33.4911955016734
도남침대마트,126.527950577716,33.4917286439114
코사마트 진성수퍼,126.526877844767,33.4927018801545
수산정육할인마트,126.527948934888,33.4912381707394
제스코마트 전기차충전소,126.52951329148976,33.48092897785968
좋은마트 주공점,126.532585703205,33.4890161873493
새힘활어마트,126.52836812059,33.4933098255134
CU 제주도남점,126.5314132137486,33.49294361018072
CU 제주법원점,126.53591190207412,33.49280456437132
CU 제주구남점,126.535058766661,33.4873340993535
김수미의엄마손맛 마트로 센트럴점,126.537133624901,33.4907084198124
제주축산농협 하나로마트 아라점,126.542757691009,33.4858660966621
뉴월드마트 이도점,126.542427270205,33.493045176635
탐나마트,126.547316337922,33.4939827595726
전기차마트,126.544504762406,33.4900369971947
제주축산농협 하나로마트 아라점 주차장,126.542687256712,33.4861651663551
제주축산농협 한우플라자,126.54296774494178,33.486025552227524
하나로마트 제주점,126.5528927243252,33.503582439416135
번영마트,126.595078957239,33.4898672581483
뉴봉개마트,126.59745732262736,33.488398190405185
대기물류마트,126.596485373109,33.4891613871098
반품마트,126.55288538327244,33.50145194811196
삼다마트,126.589871676458,33.5098006355741
제주하나로마트 주차장,126.552568484447,33.5034325060588
탐라공구마트,126.55961650597688,33.50895296745767
e좋은마트,126.58989221230532,33.507728840442965
제주시농협 하나로마트 제주점 전기차충전소,126.55219235390864,33.504999918915544
하나로마트 제주시농협 1주차장,126.554613076697,33.5022064931895
하나로마트 제주시농협 2주차장,126.554097750958,33.5036435824702
하나로마트 제주시농협 주차장6,126.552293443421,33.5045963706443
하나로마트 제주시농협 주차장5,126.552492910952,33.5034791159587
하나로마트 제주시농협 3주차장,126.553553089484,33.5032449200856
하나로마트 제주시농협 4주차장,126.552866657054,33.5027916481646
하나로마트 제주시농협주차장7,126.553525483783,33.5035910323739
제주종합식품,126.60864945719632,33.47559707699417
타이어테크 OK마트자동차,126.559665351951,33.4999453226221
제스코관광마트 동쪽송당동화마을점,126.7320381763518,33.43543317001084
대흘마트,126.654010445111,33.4986650889405
농협하나로마트 제주물류센터,126.67548476974434,33.49089730766301
제이팜정육식당 송당점,126.73329994950537,33.43495983958346
성산일출봉농협하나로마트,126.91154531073396,33.44637971743617
표선농협하나로마트,126.82144031304726,33.33047696954792
표선농협하나로마트 성읍점,126.800651945231,33.3906502912485
표선농협 하나로마트,126.831988977256,33.3253460944634
표선농협하나로마트 제주수련원점,126.794785267987,33.3056247785446
표선농협하나로마트 가시점,126.77154764103,33.3522091378062
구좌농협하나로마트 우도점,126.953722092567,33.50527942394469
성산월드식자재마트,126.910147405482,33.4471829500718
표선수산마트,126.835985287941,33.3253920082277
제주동마트,126.911598591599,33.4500475111546
유드림식자재마트 표선점,126.833203200968,33.3244722495421
일출식자재마트,126.917870068318,33.445524831529
365식자재마트,126.914677313971,33.4451367859272
성산K마트,126.93268230704552,33.462885257697664
신산마트,126.878137086807,33.3816550194647
종달마트,126.890700838194,33.4987888834093
올레농산마트,126.92272305512,33.4366173126523
월드식자재마트 표선점,126.828784701358,33.3321913854282
표선농협하나로마트 주차장,126.83199064645922,33.32503593658195
그린마트 우도점,126.954550929842,33.5091295766469
복성마트,126.929751024998,33.4695320966596
표선번영마트휴게소,126.829020769712,33.3345097937921
이어도낚시마트,126.92934264714565,33.46901253799547
전자마트,126.91427885053328,33.45114575224507
성산일출봉농협하나로마트 주차장,126.911957314235,33.4462943575182
올래마트,126.920673156965,33.4392234835809
숑숑돈까스하나로마트 성산일출봉점,126.91155081452035,33.446255298932144
선일신발할인마트,126.832539854023,33.3253937229406
일출식자재마트 전기차충전소,126.917881885125,33.4455392651465
복성만물마트,126.929931898067,33.469357286959
고수목마축산물할인마트,126.83127800664997,33.32700502831707
송림낚시마트,126.760670820665,33.2957071358713
신발할인마트,126.832544244909,33.3253441393033
양숙이토산품마트,126.93585577795794,33.462697602241235
해미원횟집,126.844195769068,33.3249806148113
CU 제주우도점,126.943981902179,33.5024137128517
CU 제주당케점,126.843044261385,33.3250765411686
CU 성산신산점,126.876269188378,33.3801817261979
나들가게 수산2마트,126.86285129563358,33.439292031906334
고수목마축산유통,126.831290867197,33.3270194718321
쏘카존 성산 K마트,126.932795334048,33.4627843387458
네이처컬렉션 제주성산하나로마트점,126.911559420348,33.4462535018465
이마트 제주점,126.52117761069262,33.51797502913048
마트로 탑동점,126.52568626645922,33.51703849328198
ABC마트 GS제주칠성점,126.52556665455069,33.51371116808576
ABC마트 ST제주칠성점,126.525338306565,33.5153187301281
한아름정육마트,126.51825812322964,33.511438003033014
용담정육마트,126.51838067533532,33.5116584675451
다모아마트 용담점,126.512879048419,33.51293344284
마트21,126.52361876923264,33.51228999922844
신동양마트,126.52546644687,33.5123511860285
마트약국,126.52060523839846,33.51812338073927
그린마트 중앙점,126.52548601295923,33.511527207254595
그린 코사마트,126.519519238387,33.5149969685055
코사마트 장안마트,126.5185493049375,33.5113327473554
동아코사마트,126.52445301431,33.5071541370663
대통불교마트,126.520222891485,33.5076355060074
CU 제주남문점,126.52010533497182,33.509239882208455
CU 제주중앙로점,126.524073441966,33.5112206573509
월마켓,126.57046084168456,33.519645157884895
뉴월드 화북점,126.570294812001,33.5196986775285
무지개마트 인화점,126.54165965494332,33.508840050798504
이 전기자재마트,126.5649943492292,33.51265857943824
플러스마트 제주점,126.540779318971,33.5059787443304
창호유리마트,126.546024948177,33.5113174694676
제주명함마트,126.540448733724,33.5131397622564
다모아마트,126.56549067222213,33.52124167147778
제주마트 신산점,126.538729298228,33.50878319374351
올레마트,126.566172275762,33.5201170715551
맑은마트,126.542092003644,33.5060376984746
서진마트,126.542769263917,33.5065919741866
뉴월드마트 물류센터,126.56619036045,33.5147688928988
나우리쎄븐마트,126.538714299613,33.5170858896874
세진C&C마트,126.564769983703,33.5189905726989
코사마트나들가게 성신슈퍼점,126.540995801516,33.5171592791725
변씨네수산마트,126.54038833260468,33.51316388113473
삼덕정육마트,126.539604591097,33.5148244061251
뉴월드마트 화북점 전기차충전소,126.56976552764318,33.51942005168185
세일마트,126.57124963992224,33.51990394269663
CU 제주화북점,126.563495767043,33.5120871081849
CU 화북남문점,126.565578562955,33.5200248316198
CU 제주여상점,126.536840156091,33.5140928285679
CU 제주사라봉점,126.53886334146,33.5157737287953
CU 제주서반점,126.53863728203446,33.51212865673524
꽃핀들,126.56880959072816,33.51141239289109
다모아유통,126.5655697224668,33.52114728168394
컴포즈커피 제주뉴월드화북마트점,126.570276451151,33.5197112361146
제주축산농협하나로마트 삼화점,126.58089814257684,33.515288353421305
조천농협하나로마트 신촌점,126.619152277667,33.5359645788959
삼화마트,126.587214290689,33.5172930654846
삼화드림마트,126.578896918592,33.5171280280761
Y식자재마트 제주삼화점,126.581179020047,33.5170852757846
신촌마트,126.619059487239,33.5325743091238
H마트,126.58266943137043,33.5214179485068
무지개플러스마트,126.57488871901676,33.51444923053891
화북주공마트,126.576628596136,33.5196447539874
모닝마트,126.580621842678,33.5210215451502
펫마트 제주삼화점,126.579299827422,33.5175008531317
Y식자재마트 제주삼화점 주차장,126.581429791714,33.5170897297676
주공미니마트,126.574179288532,33.5195281672806
제주은행 화북삼화마트 ATM,126.58718842400236,33.51730019202735
CU 제주도련사거리점,126.58957503855,33.5151839695183
CU 화북주공점,126.573082004105,33.5193981674823
썬더치킨 삼화마트점,126.587199170386,33.5173038342103
함덕농협 하나로마트,126.67421536429326,33.53675819923004
함덕농협하나로마트 중앙점,126.6646621132218,33.54189611979613
조천농협하나로마트,126.63825202791772,33.53628060089101
김녕농협하나로마트,126.75199828593064,33.54894763930064
대명홈마트,126.670736937955,33.5398522826812
김녕킹마트,126.75132724450776,33.55466059320221
유드림마트 함덕점,126.668492155829,33.5412527780497
대명식자재마트,126.670758614342,33.5398144734191
동부마지막휴게마트,126.6850734442113,33.530998053452684
서울코사마트,126.63671762116064,33.536081365344145
함덕하나로마트 주차장,126.674151625745,33.5371033417709
동일할인마트,126.66829385711722,33.54073924088886
함덕농협하나로마트 중앙점 주차장,126.664481414563,33.5418487475245
A플러스정육마트,126.66547998706514,33.53780780645977
별천지미니마트,126.69601284718289,33.5511101843981
유드림마트 함덕점 주차장,126.668795246959,33.5411093342867
조천하나로마트빵집,126.638249976126,33.5362562519117
하나로마트 식당,126.674129229295,33.5367597757902
조천농협하나로마트 주차장,126.638474919667,33.5365309927805
훈남농수산마트,126.667852612625,33.5420976595272
한라농자재,126.642539356009,33.5341193111656
크린에이드 하나로마트함덕점,126.67403345901,33.5367469014357
김녕농협 ATM 김녕농협하나로마트월정점점외코너,126.75206805732044,33.54977814701713
뚜레쥬르 김녕하나로마트점,126.752006879417,33.5489548692645
구좌농협하나로마트 중부점,126.853379996301,33.5249481780956
동부물류마트,126.853128546161,33.5234115542568
진흥농자재마트 제주지점,126.867689993604,33.5133435596934
구좌하나로마트 중부점 주차장,126.85308500833,33.5249685653455
하나로마트 베이커리,126.853324178124,33.5248543456479
오멍가멍휴게마트,126.85641671105692,33.520396852380074
CU 제주세화중앙점,126.85675971595204,33.52323458509594
노화농협하나로마트 본점,126.57184457577029,34.17711521619442
소안농협하나로마트 본점,126.64939608841227,34.17360744324713
보길마트,126.592319414863,34.164601839735
완도청산농협하나로마트 본점,126.85728592047664,34.180901046527346
땅끝농협하나로마트,126.52026029563235,34.369910403866804
송강마트,126.52024781730876,34.31274907797373
타이마트,126.517941245,34.3682299754922
하나원마트,126.5176566295302,34.36857231251896
호남마트건어물,126.527229690887,34.2984950574538
송강마트 민박,126.520418349607,34.3127551546176
땅끝청정건어물마트,126.528343549956,34.2989933595919
CU 해남땅끝점,126.528315525647,34.2993430243952
완도농협하나로마트 본점,126.74637497327387,34.319979787293335
강진완도축협하나로마트 완도점,126.756242929475,34.31351636769
장보고마트,126.745620229931,34.3198520147481
국제낚시마트,126.737549123568,34.3269855269067
영일낚시마트,126.752820987019,34.3163717150805
완도홈마트,126.74812182078,34.320434132609
건강마트약국,126.75391443776,34.3154688291459
부일낚시마트,126.738590976358,34.3259997333344
타이어마트,126.740685826756,34.31331494238
컴퓨터할인마트,126.75091946022,34.3164408829994
에브리원마트,126.748219175863,34.3169401916954
장독반찬마트,126.747762448369,34.3170762771657
해안할인마트,126.755827341427,34.314463899098
완도면세DC마트,126.755980141993,34.314222606418
골드마트,126.74772257437,34.3216881722167
대도슈즈마트,126.75548657761,34.3135833728481
조은그릇마트,126.74777875336,34.3174369032973
세탁할인마트,126.7422671204581,34.31953759974995
신아축산마트,126.754876584929,34.3141302547658
장보고전복마트,126.753435374539,34.3165613630534
완도농협하나로마트 본점 주차장,126.746160589835,34.3204535221294
새한마트,126.754440299539,34.3147171471479
야채마트,126.74760374971136,34.31637459767056
CU 완도은성점,126.75800039100828,34.31327284632376
CU 완도행복점,126.756550569178,34.3138306952928
CU 완도중앙점,126.744049692274,34.3189508677559
CU 완도해림점,126.74801410434084,34.32448336202389
완도농협 하나로마트<간>,126.74656372516418,34.32008024233454
해남화산농협하나로마트,126.51476488637,34.4920621786044
현산농협하나로마트,126.55318807661898,34.45783276893312
북평농협하나로마트,126.628707756627,34.4064624067018
MS식자재마트 남창점,126.62881476348709,34.40587497651498
착한슈퍼마트,126.619713280214,34.4971655766972
원앙마트,126.513623630196,34.4260461226868
삼양마트,126.627697688658,34.4046672252666
한양할인마트,126.627626091834,34.4031525463783
새천년마트,126.62795434413,34.404671611912
수강마트,126.514876564425,34.4908258364758
근화마트,126.554104573105,34.4582129229124
화산낙지생선마트,126.51482051586706,34.49035235410774
형진마트,126.627702454307,34.4045734874334
케이블나이트,126.623826141736,34.4968240377448
완도농협하나로마트 군외점,126.6489261414347,34.38994953948812
옥천농협하나로마트 북일점,126.674165379535,34.4638924492826
좌일마트,126.67456926392715,34.46386738288893
한남마트,126.67543265366,34.4637876456832
터미널식육점마트,126.674796896186,34.4638256201625
완도농협하나로마트 신지점,126.82683015317102,34.33390181653904
신지마트,126.81222039780248,34.33545066354959
CU 완도신지점,126.828601979051,34.3336518947204
완도농협하나로마트 생일점,126.995187908021,34.3371541092839
완도농협하나로마트 고금점,126.802120695281,34.3968450680383
강진남부농협하나로마트 대구점,126.800266133612,34.4962013649355
강진완도축협하나로마트 로컬푸드 고금지점,126.802623897402,34.3969792985161
마량시온할인마트,126.816517423398,34.4514982160611
풍진마트,126.817888240414,34.4496486600279
빅씨아시아마트,126.81731651784456,34.450841344548266
서정마트,126.81789848563808,34.45144619305335
강진마트 2호점,126.8164894768326,34.451339516609224
거창그릇마트,126.817450697628,34.4521901337916
우진전자마트,126.800857682415,34.3956422595544
대영수퍼마트,126.800313277737,34.3959190253542
CU 강진마량점,126.817252163543,34.4499109382638
CU 완도고금점,126.80451444987,34.3963152451802
천관농협 하나로마트,126.8881202854925,34.49864095177556
천관농협하나로마트 회진점,126.9435645322751,34.484365778144884
완도농협하나로마트 약산점,126.899830058195,34.3943245653926
천우식자재마트,126.88595970682051,34.49888775652786
삼우MS식자재마트 회진점,126.93970906186324,34.485159925818024
약산중앙마트,126.8994289565988,34.39417549336597
전광사종합마트,126.88710662557236,34.49941707546531
CU 장흥회진점,126.940241895326,34.4844867971419
CU 장흥대덕점,126.888437991089,34.4988161249623
해남농협하나로마트,126.602330354557,34.5661636391831
해남진도축협 하나로마트 본점,126.60036494371566,34.568582995359705
해남진도축협하나로마트 해리점,126.60666450400294,34.56931829785048
해남진도축협하나로마트 고도점,126.59569869947,34.5674579579604
해남옥천농협하나로마트 삼산점,126.60856608235471,34.52185620873733
해남농협하나로마트 마산점,126.570785336529,34.6179433990323
명지마트,126.607634677554,34.5690221420661
다온마트,126.598103063016,34.5748396694976
한두레마트,126.591641406747,34.5770970587109
비타민마트,126.59506929426956,34.56691500802624
둘리마트,126.591270494869,34.578952779188
성원전기조명마트,126.603751270931,34.5716886762467
현대친환경농자재마트,126.59453383787417,34.566325492045976
도연마트,126.603032676851,34.5733846527691
은정홈마트,126.595566264826,34.566902232469
해남농협하나로마트 주차장,126.602334374767,34.5657769344926
한길마트,126.592078471998,34.5706189802876
대흥농약할인마트,126.601171824211,34.5659723601822
우주마트,126.607652024528,34.5736808370379
행복드림천냥마트 해남점,126.596114895802,34.567473758703
해리마트,126.605502986934,34.5736703047442
호산나마트,126.594586360759,34.5658316775091
남해마트,126.594660581489,34.5658066836586
해남종합문집마트,126.594015627185,34.5729511506842
하나로마트 홍삼매장,126.60233073217,34.5660843136898
CU 해남해리점,126.605211959842,34.5706837969985
해남농협 중앙지점,126.5973396794635,34.572007537274075
해남농협 하나로미니 2호점,126.597233130636,34.5719558037867
삼산슈퍼,126.609290054643,34.5207533527245
아이코스서비스센터 비타민마트,126.598016500334,34.57493673982
강진도암농협하나로마트,126.7280263332978,34.5472138483302
해남옥천농협하나로마트,126.647859403892,34.5669056255506
강진도암농협하나로마트 신전점,126.72090209726112,34.51366385984476
주작마트,126.721853530023,34.5147594907304
학우사마트,126.648532313362,34.5665145362216
서영암농협하나로마트,126.56822020798312,34.72486656903097
월출산농협하나로마트,126.58118340322488,34.7548477706188
서영암농협하나로마트 미암점,126.569161974278,34.6990587229725
바다마트 독천점,126.568010652675,34.7256933252668
대영마트,126.569072369612,34.7247560080737
하나로마트 제과점,126.568246569545,34.7248360143433
미암농협 마트,126.569144343352,34.6990911117262
계곡농협하나로마트,126.6603812004778,34.645658120951374
강진농협하나로마트 성전점,126.71117654654957,34.690173548792416
탐진마트,126.75869323931836,34.63592603066675
강진완도축협하나로마트,126.76492801706102,34.632552416699006
강진남부농협하나로마트 본점,126.799357263063,34.5719181197428
관산농협하나로마트,126.93876126862,34.5619606266894
용산농협하나로마트,126.915305310272,34.6156762836217
신선마트 관산점,126.94066983876392,34.562677319021134
우리관산한우마트,126.938343429907,34.5626383054432
천관산한우,126.938303106961,34.5626454966573
강진농협하나로마트,126.77054771991456,34.6396943694772
강진한들농협하나로마트 작천점,126.770992673009,34.7051218634588
한들농협하나로마트,126.815113335673,34.7164069118852
강진농협하나로마트 군동지점,126.815792688324,34.6443152335794
강진농협 파머스마켓,126.77491118482304,34.63819259785474
참마트,126.767969744844,34.6379956967573
청담식자재마트,126.762607254124,34.6386830870505
정민마트,126.7722780980523,34.64028174217782
현대식자재마트,126.77273641882464,34.64019515796709
화신농자재마트,126.774679737647,34.639890473194
뉴강진마트,126.76522243532,34.6364363658319
현대 일등 마트,126.772699522935,34.6401265801972
에이비엠코리아생활용품DC마트 강진보은로점,126.770965789147,34.6367925359135
에이스마트정육점,126.763373213262,34.6378029726949
설성마트,126.81629140570126,34.71436426404747
뉴강진마트정육점,126.765244247742,34.6364364078182
CU 강진우량점,126.773869022742,34.6412230954872
나들가게 설성마트,126.816371087938,34.7143679898614
정남진장흥농협하나로마트,126.90400862506212,34.68242008981143
정남진장흥농협하나로마트 서부점,126.902539403411,34.6790556870735
안양농협하나로마트,126.972629569691,34.6496327366853
정남진장흥농협 하나로마트 부산점,126.90242323426634,34.72132443220421
엘디마트,126.9064754751593,34.67794640496276
최상,126.899884510084,34.6718285646894
협동엔터프라이즈 장흥지점,126.906477683853,34.677922969455
뉴마트,126.910669897524,34.6800246444548
와이마트 장흥점,126.89988124656853,34.671820449123935
정남진마트,126.906361679765,34.6762858817374
하이전자마트,126.90258879120351,34.634990932230345
삼미수퍼마트,126.906180107881,34.6805468054519
원할인마트,126.910625683908,34.6805510474853
병원마트,126.910571554683,34.6771048379747
정남진장흥농협하나로마트 주차장,126.904556102543,34.6826999630764
안양농협 본점,126.97286633267106,34.64945250245394
CU 장흥우량점,126.907447563689,34.6810210253817
월출산농협하나로마트 시종점,126.609519189959,34.8668999368273
영암군서농협하나로마트,126.633425936988,34.762397008049
태화마트,126.63233346749,34.7624405876644
수암할인마트,126.608706993872,34.8675102751879
현대슈퍼마트,126.608924328027,34.8687296613893
나들가게 만물소비자마트,126.607915208424,34.8684262469699
영암축협하나로마트,126.68600417091272,34.794883887924705
영암농협 하나로마트 본점,126.70250026131508,34.80050054291593
신북농협 하나로마트,126.68900633001802,34.884576651227334
영암금정농협하나로마트,126.74815926235134,34.86643771473538
영암낭주농협하나로마트,126.644351312588,34.845239822714
에이마트,126.699135858999,34.8025312585582
후레쉬마트,126.696662796196,34.7986634849538
하나로농자재마트,126.68929030349,34.85532880945
란락라오스아시아마트,126.699925845869,34.8022609836001
금정마트,126.7485716101994,34.862831162985515
생활용품할인마트,126.699112407512,34.8005643270425
영암농협 하나로마트 본점 주차장,126.702660331507,34.8000502296542
영암축협 하나로마트 전기차충전소,126.68617593593184,34.794828443553286
CU 영암시영점,126.69738972092,34.7994945907241
공산농협하나로마트,126.607039620468,34.9429764951225
동강농협하나로마트,126.563968270557,34.9369092503092
천지농협하나로마트 엄다점,126.515612481919,35.0093517723089
공산할인마트,126.60996033990912,34.94132555684549
나주배마트,126.62522183242385,34.986296681485975
영산포농협하나로마트,126.709700436472,34.9930360251777
나주축협하나로마트 영산포점,126.715037452661,34.9954066807509
마한농협하나로마트,126.70573079720512,34.97348631253358
마한농협하나로마트 양산점,126.705491285399,34.9706463738614
세지농협하나로마트,126.748558765694,34.9198327531958
마한농협하나로마트 왕곡점,126.671552434596,34.9688286703959
스톤마트,126.656683068812,34.9423625582257
금동마트,126.67254852006651,34.93478512723212
현대농약마트,126.748012712694,34.9198217067883
부영마트,126.701858637264,35.0036893544103
죽동정류장마트,126.711762654631,34.9359039586899
대구마트,126.70898228848212,34.99694809869577
섬멀마트,126.74507990001524,34.91873482034093
한길윤할유마트,126.711059728582,35.0064409790269
매화마트,126.708169310648,34.9960790196109
공단마트,126.68407965262,34.9847226254997
도울마트,126.7098998817,35.0060452116
나주이불마트,126.708355165134,34.9918574007415
동창소비자마트,126.74808140642224,34.91990387591953
제일슈퍼마트,126.6901740840732,34.88792200838863
황금과일마트,126.692128249901,34.8884029098812
부영코사마트,126.702344781942,35.0025475991066
리더낚시 나주점,126.713911728938,34.9965758274227
맥시칸치킨 영산포점,126.708312018388,34.9941395924586
하나은행365 두리마트영산포점,126.707615394789,34.993210396357
나들가게 싱싱마트,126.702923131388,35.0025625365373
이마트에브리데이 나주혁신점,126.788444108448,35.0092145162962
능주농협로컬푸드 하나로마트,126.95883734085982,34.99264780105314
도곡농협하나로마트,126.91668787979246,34.99796689323045
이양청풍농협하나로마트,126.987708564736,34.8872200912561
봉황농협 하나로마트,126.78061193628128,34.95709522723716
능주농협하나로마트 춘양점,126.960824217759,34.9513721192721
도곡농협하나로마트 도암점,126.897985161706,34.9359542571014
용두농협하나로마트,126.974183601322,34.7737630758555
남평농협하나로마트 다도점,126.827074215041,34.9441776356254
정남진장흥농협하나로마트 유치점,126.839457814829,34.8021374263738
능주농협하나로마트 한천점,127.00015989010392,34.977890081799686
봉황농협하나로마트 덕림점,126.761783033859,34.9274094569816
파머스탑마켓,126.78994264574236,35.00971287781864
지석강마트,126.983269741044,34.9393923820054
한양골프할인마트,126.895704094162,34.9912290606472
유창마트,126.955460323261,34.9908149956096
다도마트,126.827037895316,34.947398250776
바이마트,126.82156774892212,35.009398427851146
봉황편의점마트,126.781211975606,34.9570737748737
만물마트,126.78119860021,34.9571629881495
호도리생활용품백화점,126.958830085648,34.9896371736709
함평농협 하나로마트,126.52110538750776,35.06272459633105
함평축협하나로마트 한우프라자점,126.52012258942898,35.0605709603639
천지농협하나로마트,126.53351054208764,35.02167150822511
나비골농협하나로마트 대동점,126.530287282045,35.0669960063093
나비골농협하나로마트 나산점,126.60911030187,35.1124807948833
다시농협하나로마트 문평지점,126.603504999082,35.054923142558
나비골농협하나로마트 자재센터,126.529986512942,35.06744462135577
나비마트 함평점,126.519332092296,35.0641444401433
모아마트,126.521001896847,35.065052408738
함평천지농약할인마트,126.5270708164608,35.058611642607204
열린마트,126.521875644511,35.0641112275297
나들가게 알뜰마트,126.51949514455715,35.0619493653785
삼양식육한우마트,126.52212631908446,35.063422672507635
함평농협하나로마트 주차장,126.521181598023,35.0622516814202
푸른꽃마트,126.51966866795,35.0635797174166
나산그릇철물마트,126.610509795931,35.1125195511685
해운수산마트,126.522324578086,35.0630746258219
나비골농협 나산지점,126.60896912345976,35.112412737557
CU 함평학교점,126.533167272169,35.0224976458248
하나로종합화장품,126.522322503345,35.0626780177696
다시농협 하나로마트,126.63722557217991,35.017592892819344
다시식품마트,126.636698836154,35.0167872910366
장어마트,126.641141594707,35.0170601044021
롯데마트 나주점,126.7129071228467,35.01323634504576
롯데마트 나주점 주차장,126.712937592065,35.0129822286226
롯데마트 나주점 전기차충전소,126.7127743920028,35.01328290265622
다이소 롯데마트나주점,126.712766514843,35.0133423749359
시호비전 롯데마트나주점,126.712941974018,35.0132959183966
네이처리퍼블릭 롯데마트나주점,126.71291360507264,35.01326250032856
이화빵집 롯데마트나주점,126.712911511526,35.0132345526711
롯데ATM 롯데마트 나주1층 1,126.71276431734768,35.01334417249074
투루케어 롯데마트 나주점,126.712910412781,35.0132354514499
LG화장품 롯데마트나주점,126.712766514843,35.0133423749359
민팃ATM 롯데마트나주점,126.712911511526,35.0132345526711
나주농협하나로마트 송월점,126.71756242744615,35.01671757033552
광주식자재도매센터 나주점,126.715693707152,35.0248147798106
M마트,126.71845990432412,35.01635730185352
에브리마트,126.716184576033,35.0203847628927
이루도매센타 나주점,126.715252462034,35.0243991123502
타이어할인마트,126.712181433089,35.0264830596236
금천농협하나로마트,126.753566044106,35.0340699985544
금천신선마트,126.753542909159,35.0330153421041
고향종합마트,126.753605009324,35.0356925534247
동부팜마트 금천점 금천농약종묘사,126.752633443547,35.0351623707523
제일농약마트,126.7249555642078,35.03545883343273
하나로마트 농협창고,126.753342366146,35.0341092046106
나주농협 하나로마트 본점,126.716659832288,35.0280872305012
나주축협 하나로마트 본점,126.71768753859196,35.03769287292853
나주도매물류 나주점,126.72077077354206,35.03500309523696
현대마켓,126.716175629543,35.0388232742777
나주밧데리할인마트,126.719824552176,35.0306436679697
크리닝마트,126.717663554242,35.0280967808886
보람크리닝마트,126.717657192657,35.0401427366244
JV마트,126.71944926296824,35.05644100547022
대성수입육마트,126.72376825044086,35.03624483906505
SPAR할인마트,126.71869489356035,35.03667665966797
금성할인마트,126.720308326799,35.0288852992886
무진마트,126.722722783898,35.0355862539237
고려종합물류마트,126.719266760677,35.0284033624577
나주 농협 하나로마트 전기차충전소,126.716999832678,35.0279996890725
KT U&I정보 나주점,126.721946891713,35.0342901044989
나주플라워,126.719514952186,35.0288870736259
온누리백제약국,126.722214566221,35.0342077910923
코렉스자전거 나주대리점,126.719037887906,35.0350838244091
우리동네 나주DC마트점,126.72038879711084,35.03550247850982
나주농협 영농자재마트,126.722585795831,35.0508245596792
어우동마트,126.751386911907,35.0660715096506
빛가람마트,126.760038893613,35.0331275131304
노안농협하나로마트,126.731525866397,35.0755332158885
노안철물마트,126.73057098953,35.0751633398748
신선마트 노안점,126.73310020470352,35.07355728433601
풍산마트,126.729124593955,35.0775469422535
하나은행365 평동아시아마트,126.756907479725,35.1260839558954
월야농협 하나로마트,126.628322853095,35.1793677043122
나비골농협하나로마트,126.603582545096,35.1802158473503
영광농협하나로마트 묘량점,126.543554529513,35.2591927313381
신도마트,126.60576674911,35.240750088926
상무마트,126.605504403917,35.2404752266286
동부팜마트,126.603670390868,35.1811165827253
월야농협하나로마트 주차장,126.628100389322,35.1795220537141
문장푸른마트,126.604157351253,35.1812164222302
나들가게 월야해피마트,126.626981227181,35.1798665334404
삼계농협하나로마트 본점,126.665826691853,35.259246067729
삼서농협하나로마트 본점,126.646846577061,35.2328621883625
광주삼도농협하나로마트,126.703168066978,35.1625170266398
임곡농협하나로마트 본점,126.742338355832,35.2198533281448
본량농협하나로마트,126.730112496355,35.1809712846116
삼서마트,126.646340931408,35.2298970956061
우성수퍼마트,126.663877433406,35.2597309976073
CU 장성상무대점,126.669675085772,35.2554457685651
365일낚시,126.75530770806633,35.15144590878017
떡담 삼계하나로마트점,126.666128684472,35.2595641729097
노브랜드 나주빛가람점,126.79210909103269,35.022493655382085
금천농협하나로마트 빛가람점,126.785167909945,35.0169462022843
산포농협하나로마트 빛누리점,126.78924468142,35.0289651125384
산포농협하나로마트 로컬푸드직매장,126.789261363814,35.0288695955407
Y식자재마트 나주점,126.801676480056,35.0208952983593
대촌농협하나로마트 학승점,126.80386364882185,35.06486253032951
산포농협하나로마트 덕례점,126.797145449307,35.0542657604444
ABC마트 ST나주혁신도시점,126.803395734648,35.0213163352681
와이마트 대광점,126.78385512658434,35.010354789324346
포시즌마트 빛가람희망로또,126.793891339006,35.0178915527212
유림식자재마트 우미린점,126.78066096753844,35.02493336464352
펫마트 나주점,126.79909369367444,35.02142556770321
장보고싶은마트 나주혁신점,126.77928609196596,35.01707265817787
고려농자재마트,126.819792644797,35.0439897903176
월드마트 나주점,126.792606066146,35.0114030381403
행복한고기마트,126.79434443585374,35.016344653714214
바다아시아마트,126.803731779927,35.0393363095405
K휴대폰할인마트 나주점,126.792233780264,35.0234484282227
포차마트 빛가람점,126.792819018238,35.0186261533868
금천농협하나로마트 빛가람점 주차장,126.78515476214,35.0169461790112
산포마트,126.803306951484,35.0359671793487
희망소비자마트,126.803094749832,35.0362552755918
산포농협하나로마트 빛누리점 주차장,126.789263416627,35.0289236817299
마트포차식당 빛가람점,126.792819018238,35.0186261533868
코코마트 빛가람점,126.784572799462,35.0266187365184
올마트,126.802989127175,35.0364281683836
산포농협 하나로마트 로컬푸드직매장 전기차충전소,126.8035024779326,35.03577730573602
산포농협 하나로마트 빛누리점 전기차충전소,126.78935070221873,35.029071659113775
주식회사 와이마트나주혁신중흥점,126.788780330997,35.0233198794718
무인민원발급창구 산포농협 하나로마트 로컬푸드직매장,126.789261363814,35.0288695955407
남평농협파머스마켓,126.840448757242,35.0470797831438
남평농협파머스마켓 강변점,126.850878449406,35.0400046302957
와이마트 남평점,126.8500719401053,35.040598544845786
태국마트,126.842280211636,35.0471110218318
도서관마트,126.844766744437,35.0427010936137
명수마트,126.846290726753,35.0459227480672
지오안경마트,126.8406477315725,35.04677718255011
부영식육마트,126.84255706611,35.0450598509147
CU 남평중앙점,126.840397016175,35.0466326329427
평동농협하나로마트,126.760804052037,35.123961789539
다담식자재마트 송정점,126.793264604624,35.1291881121941
동곡농협하나로마트,126.774203559005,35.0978262866838
G마트 평동점,126.762418213178,35.12459772058206
카카오마트,126.78510668478545,35.13232418204009
평동할인마트,126.763303360127,35.1246697586135
다드림장바구니마트,126.788167769191,35.1315156413889
에스엠마트 송정점,126.79084870134764,35.13003214898859
영암마트 송정점,126.80005377924776,35.13369008818622
6번가마트,126.77795082252,35.1201726356561
가족마트,126.777600014891,35.1225047201827
금강마트,126.79494205266,35.1305430051137
형창할인마트,126.790758956491,35.1282292696952
호반할인마트,126.790094897332,35.1279135459969
외국인마트,126.7672649862757,35.12505059426634
99마트,126.777814647324,35.1226493318715
전남낚시마트,126.790000302311,35.1271526322546
OK아시아마트,126.777653889189,35.1212501217123
동부팜마트 한국농자재 광주점,126.786918747156,35.1257807883343
애니밴드노난다무인마트,126.789509496645,35.1336992742817
다담식자재마트 송정점 주차장,126.793552632457,35.1293959164622
해뜰DC마트,126.7924956364944,35.128268309928345
호반마트,126.795362792782,35.1290186114227
OK할인마트,126.776693261805,35.1215097510626
아세안마트,126.77819878811135,35.12137370540759
자연숲마트,126.789665185706,35.1294775658799
나나마트 옥동점,126.760612295088,35.1250069911809
탑DC마트,126.768521145075,35.1235071631617
무등할인마트,126.791543809163,35.1289354874249
영신마트 도산점,126.788793599764,35.1287982258223
에스엠마트 대촌점,126.829830795577,35.0890215166109
대촌마트,126.832789005313,35.0817290461938
남광주농협하나로마트 효천점,126.873517263373,35.1022430457807
와이마트 효천1지구점,126.874698524358,35.1015195728321
G마트 효천2지구점,126.88200924732188,35.100319075059595
서창농협하나로마트 벽진점,126.831236169726,35.1328884383613
Y마트,126.84854310590232,35.12896513574043
와와식자재마트 본점,126.853243803685,35.1268599256207
매월낚시마트,126.846945323617,35.1133028245616
신세계마트,126.839543268641,35.1289012760238
나들가게 송학마트,126.829738888528,35.1142407343346
D유통,126.860128168427,35.1147284878195
슈퍼마트 남동유통 풍암점,126.866238932377,35.1183444512577
모노마트 광주점,126.85902736172967,35.11727762568661
빅케이마트,126.866242056932,35.1184463089511
고기마트 축산물도매센타,126.856053150797,35.113988203161
카마트,126.8581871853427,35.11245749543151
나이스파크 광주빅케이마트풍암본점 주차장,126.866383572998,35.1184455636608
하나은행365 빅케이마트풍암본점,126.866235588305,35.1183768967079
대양식자재마트도매물류 2호점,126.87575058485132,35.10497469533167
IGA마트 송암공단점,126.87736836757097,35.11013216034075
진호철물마트,126.881727952594,35.1067545642228
프라마트,126.872519817496,35.1145114029046
텃밭 마재점,126.854852169244,35.1305826901652
푸르젠 풍암점,126.866214363272,35.1199524591108
애니마트 마재점,126.858212356244,35.1314844253265
한국마트,126.859950318209,35.1340391054993
마재호반마트,126.855421320884,35.1263974390029
풍암25시마트,126.866525656705,35.1228047197684
탑브랜드신발마트,126.859557907718,35.133808803934
좋은고기마트 금호점,126.857947968662,35.1314642857481
금호마트,126.85760089659,35.1348223558641
대주마트,126.857548494056,35.1271102322815
행복한마트 풍암점,126.863882934886,35.1207502753084
리빙마트,126.865079985802,35.131953762998
대우축산마트,126.854957584324,35.1280589993204
생활공감DC마트,126.864931976095,35.13122169136328
아람마트,126.86484427885388,35.13117472271761
휴대폰마트,126.86321495501566,35.12264689557503
CU 광주금호점,126.858962402623,35.1342795250149
CU 광주화개점,126.85505056192927,35.125120665090435
화순농협하나로마트,126.98220731060827,35.058763361386845
화순축협 하나로마트 본점,126.98924913934434,35.05242752226918
화순축협하나로마트 향청점,126.984016670482,35.0612955743167
능주농협하나로마트 원지점,126.94940797442388,35.013410297119066
화순E식자재마트,126.99293538489432,35.0656843103247
바로존,126.98047719653492,35.05535319381175
농협하나로유통 화순농업협동조합 하나로마트오성점,126.962731360397,35.0527783175047
고인돌식자재마트,126.964339099601,35.0534521282546
참다음마트,126.974599479578,35.0555107475538
홍마트,126.9788186814705,35.05538626645261
사랑방 중고마트,126.982547900751,35.060329098533
매일마트,126.9851574227857,35.06375016108326
호야네착한정육&마트,126.9800513068115,35.05771923399771
서라마트,126.99480589213442,35.06246199303732
대광마트,126.977738942267,35.0554248322571
019마트 화순점,126.992251472755,35.0637300900869
아시아마트 베트남&태국식품,126.989141816847,35.0599648113035
디시마트,126.990949470338,35.0602723283508
유진마트,126.958645228122,35.0522541955897
베르힐마트,126.97618868772264,35.05634664463064
삼성그릇도매할인마트,126.983385438502,35.0602679226731
예언마트,126.992641319428,35.0685218165556
화순축협 하나로마트 본점 주차장,126.988767977973,35.0521318274513
광덕마트,126.99003537086068,35.05894002505611
화순농협하나로마트 주차장,126.98219636409718,35.05869124980361
스위트마트,126.977650204204,35.0592574620682
우리마트정육점,126.992856891608,35.0606221889613
3GO고기마트,126.98145123826497,35.052514014058985
토토생활용품할인마트,126.98373920349788,35.06083419343291
CU 화순중앙점,126.991431816713,35.0602507303916
뚜레쥬르 화순하나로마트점,126.982223755222,35.0587570541748
무인민원발급창구 화순농협하나로마트,126.982223752878,35.0587678706709
블랙데이식자재마트,126.894356812625,35.1019348973978
부지런한식자재마트,126.888784778228,35.1021732834821
와이마트 효천점,126.887900319734,35.1016938426871
노대실마트,126.90585945229974,35.098580468641174
무인민원발급창구 부지런한 마트 행암점,126.8887936089,35.1021318286688
와이마트 월남점,126.93860058766384,35.10311191627242
펫마트 광주월남점,126.93874342910556,35.10276946869906
남광주농협하나로마트 진월점,126.899009601024,35.1177848877508
SM마트 진월점,126.899525954631,35.1171651773728
제이케이마트,126.90033205285,35.112821259279
동양마트,126.89629019924,35.1099334963748
휴대폰할인마트 3호점,126.898504057685,35.1185271905987
한사랑마트,126.895344563319,35.1185966131725
빛고을낚시마트,126.88810823752,35.1092628149565
DC홈마트,126.899893131586,35.1093524394718
참좋은마트 노대점,126.906088092493,35.1057807722913
홈마트 진월점,126.90072747755691,35.11238712521144
슈퍼마트 노대점,126.903018561735,35.1081038828496
현대그린마트,126.90214711477569,35.1168031699178
진월플러스마트,126.903323783559,35.1097157705011
광주은행 365열린코너 광주은행 진월Y마트점 ATM,126.9007286619428,35.11231501687884
CU 진월지구점,126.90450802793106,35.105361303605086
CU 진월그랜드점,126.903990699164,35.1134551684365
코코식자재마트 용산점,126.925129180378,35.1179318286343
이마트 봉선점,126.916025996941,35.1224128603896
남광주농협하나로마트 지원점,126.93355169601368,35.12101940816271
부지런한식자재마트 용산점,126.930622712354,35.1260311584345
황금농부장터,126.928515550364,35.1318518442739
오니트팜,126.91302598061,35.120943322657
코코식자재마트,126.91755043844852,35.12724702372416
영암마트 방림점,126.920042874122,35.1342378677481
힐링마트,126.918030202781,35.1324049529428
평화축산마트,126.928800204641,35.1312994759228
바우문구마트,126.93146422181,35.1325539070837
다보애마트,126.93297482686,35.1208009601614
일렉트로마트 봉선점,126.9161072168914,35.122376862034315
참사랑마트,126.932539370723,35.1326888134709
코스코마트,126.917239167105,35.1334427859387
포스코마트,126.916180897509,35.1211330292901
바른한우고기마트,126.91374285594118,35.125669690365065
SM마트 운림점,126.942783398499,35.1319576685585
나비마트 봉선점,126.91812308553654,35.12730329649892
쌍용마트,126.912932976945,35.1217436680512
에브리마트 방림,126.915058866544,35.1282872801165
한빛마트 지원점,126.933706912267,35.1271325491595
다운다운도매형마트,126.934896345836,35.126952921019
한국아델리움마트,126.91246412956168,35.120069495361214
에스엠마트 봉선점,126.917207411213,35.1257919878942
우리동네슈퍼마트 봉선점,126.917238422148,35.1255035724518
코사마트 봉선점,126.918569618061,35.1239973925171
뉴플러스마트,126.91812480454188,35.12887437525917
연꽃마트,126.911973787456,35.1322745145366
CU 봉선쌍용점,126.91307772709084,35.12283442347868
CU 봉선라인점,126.918425354963,35.1278443188127
삼성스토어 일렉트로마트봉선점 모바일,126.916096253617,35.1223696435265
지마트,126.94169764953648,35.134369199796055
A스토어 일렉트로마트 광주봉선점,126.916324448114,35.1223652944461
우리동네생활용품 플러스DC마트점,126.931105407337,35.1325879554574
나들가게 도울마트,126.913452205802,35.1328488464231
쉼터마트,126.956089190631,35.1338308451481
대양식자재마트,126.78360450792164,35.15268233164292
영암마트 선운점,126.77802848813722,35.147746318954816
와이마트식자재 선운점,126.777932806195,35.1478227591691
나비마트,126.791248181063,35.1454632353204
인재대양식자재마트,126.78360450792164,35.15268233164292
호대마트,126.76967997946,35.1526133977021
유성생활용품할인마트,126.79048005215462,35.15786550854607
IBK기업은행365 선운지구Y-식자재마트,126.777994206806,35.1478427015812
IBK기업은행365 배가마트,126.776886776096,35.1474945456241
송정농협하나로마트,126.79951330675418,35.139322703207554
나눔컴퍼니,126.792363781708,35.1382867183925
세진마트,126.793546686133,35.135663975892
오피스할인마트,126.792295918804,35.1373563976192
화12마트중국식품,126.798585268114,35.1365395641676
나이스마트,126.802872318373,35.1396959689892
송정배터리할인마트,126.803148603345,35.135690769126
남부낚시마트,126.807261772688,35.1470328923557
마운틴마트 금성점,126.79155288915,35.1464660718547
아침해마트,126.796991910715,35.1383648658198
나비마트 신촌점,126.809416385943,35.1454390904062
유니나세탁마트,126.7913989794,35.1465739701518
보양마트,126.798564383441,35.1459082709538
영춘생활용품DC마트,126.797103971483,35.1383091691102
황금마트편의점,126.799706318579,35.1438478521397
신협에이마트,126.796655628876,35.1385716150351
동곡닭집아시아마트,126.796905126329,35.1370793795753
CU 광주송정점,126.799039227676,35.1438070878322
송정푸드식자재마켓,126.79880007585427,35.141102609892805
나들가게 에덴마트,126.803034483287,35.1375158403693
유아마트&어울공방,126.760229421577,35.1852277441359
홈플러스 스페셜 광주하남점,126.80538839848889,35.177955474051075
롯데프레시 광주하남점,126.797934463375,35.1805328612236
가람식자재마트 하남우산점,126.80668265532822,35.16221355440105
FM마트 하남점,126.79820134849088,35.17782383337554
대원축산&밥앤반찬,126.804356991783,35.178647855979
태백슈퍼,126.804068947179,35.1696698871893
햇살마트,126.803838884078,35.1667383031215
마트싸다,126.802426433,35.1770763643739
SM마트 하남점,126.79906132342,35.1758810397725
해바라기마트,126.797550084476,35.1828000272999
해피 마트,126.80376672937857,35.163875476256365
에프엠마트,126.805181760754,35.1725379947142
투르키스탄마트,126.805981759137,35.1712584516477
Y마트 하남드림점,126.80262045539013,35.17265372870685
러시아마트,126.806439192081,35.1737081677746
고기마트,126.79847253541,35.1778125672542
하남유통마트,126.80533512102558,35.163461579464695
이나마트,126.806304913685,35.1747823692134
월드미니마트,126.805792480994,35.176072289926
위니아마트,126.80079765962864,35.19312500969619
팜스타마트,126.80318594993128,35.16575476507878
하남고기마트청과야채도소매,126.798548899833,35.1762281118157
하늘마트,126.799839458504,35.1728249297776
300볼링마트,126.80607664585,35.176602742201
장보고싶은마트 하남점,126.802706057059,35.1726628817168
알바라카마트,126.806435689797,35.1733331981319
알톤자전거 산정점 종합자전거할인마트,126.804420593144,35.1722609532204
CU 광주우산점,126.802585526329,35.1639420603618
조광축산물도매마트,126.848521985569,35.1456997952686
해피클럽 마트,126.846917823463,35.1467613848449
ABC마트 ST광주세정아울렛점,126.847567895913,35.1465386669378
SM마트 치평점,126.847650875938,35.1491202674001
초대형마트,126.842756800295,35.1488904778768
포시즌마트,126.853100797516,35.1478398545047
삼거리마트,126.850203769967,35.146570797621
세정마트,126.846299816712,35.1462702623878
어울림할인마트,126.842752362066,35.1489157102012
자이마트,126.851930776526,35.1418822377649
CU 상무라인점,126.846035901179,35.1465583627247
CU 상무매화점,126.849220543474,35.1501209378147
CU 상무치평점,126.843281936368,35.1451595260317
나들가게 자이마트,126.851937311515,35.1419092865892
이마트 광산점,126.80859455018722,35.1599244372614
와이마트 하남중흥우산점,126.81282971525152,35.162955109556655
마트몰주유소 송헌지점,126.807518431929,35.1536132236128
영암마트 월곡점,126.812055286561,35.1660843246037
현대P&R(페인트마트),126.819424654691,35.1602484262551
보라식자재마트,126.813309581367,35.163343433721
와이마트 우산점,126.80902819019018,35.15189762233008
한국중고마트,126.807559910783,35.1527768284145
에프엠마트 우산점,126.813175193533,35.1525116035956
와이마트 무역점,126.811743469932,35.1594516514013
영암마트 시영점,126.802851205672,35.1593708073462
대하마트,126.81220795920063,35.16604129622379
광미마트,126.805169524055,35.151893281909
FM마트 맛있는고기집,126.813182875799,35.1525116154406
CU 하남콜롬버스점,126.811742134442,35.1628894280299
우리동네 플러스DC마트점,126.804186186682,35.1601427319689
다담식자재마트 물류센터,126.802374254524,35.2040700068894
W마트,126.791448009752,35.2000163313997
진곡아시아마트,126.791396539457,35.199961260294
가람식자재마트 수완첨단점,126.820094937563,35.2057371900818
SM마트 수완점,126.8195702839463,35.19667331522184
bk마트 수완점,126.819853793701,35.1975732871931
홈마트 비아점,126.82031775764712,35.22024295037142
와이마트 수완우미린점,126.8208757751954,35.2022239778434
고기마트푸드,126.811284228826,35.2109416985531
좋은고기마트,126.81660770080578,35.20058433941048
드림마트 비아점,126.819889927891,35.2199989503584
더원마트,126.818311240589,35.219648670634
Y영암마트 중흥점,126.818012709338,35.2195472711318
스팟마트 메가마트 삼성전자광주 2공장 매점,126.808505286295,35.2031406498196
G마트 비아점,126.819634308069,35.2193658226365
빛고을마트 수완점,126.810943531933,35.1949331630104
단원마트,126.812348829444,35.2007472687529
스팟마트 메가마트 삼성전자 광주1공장매점,126.809353242466,35.2011824493112
CU 성덕미소점,126.81485235675837,35.195021225242684
장성남면농협하나로마트 본점,126.811432885483,35.2416346359322
광주비아농협하나로마트 비아점,126.824966601626,35.2220596698772
FM마트 첨단점,126.83811545186416,35.21716741444194
하나로할인마트,126.834804869588,35.2150898374916
찬해영암마트 첨단점,126.83608665328968,35.21998050101967
백송마트,126.837457181201,35.2134935305379
와이마트 첨단호반점,126.83312796575689,35.21176245628503
세계로정육할인마트,126.82891425274964,35.22154613605254
AZ식자재마트 광산점,126.824816255473,35.216373740473
일신마트,126.836449238076,35.2210157404795
하모니마트,126.824335261975,35.2234756758191
코스코마트 나노산단점,126.833700872264,35.23510547698
종합사료마트,126.825568553043,35.2199946464898
에스마트 부국점,126.824885337993,35.2210284090533
선경그린마트,126.835656522599,35.2219448593574
광아좋은고기마트,126.83364343241,35.2115765860356
아시안마트,126.837049780144,35.2123617880159
애견사료마트 애견만세,126.8249872514991,35.22011548969795
별마트 첨단대우점,126.831023890848,35.2206729875947
에어컨마트 광주점,126.8250895449378,35.22926252288493
CU 월계미소점,126.837935335427,35.2182668202451
동부카오디오,126.83294245636858,35.22243598518091
현대모비스 동부카오디오마트,126.832935934266,35.2224026262661
달구지,126.836658241891,35.2197649496886
대원마트,126.84785561775,35.2347779790754
프로골프마트,126.868063136096,35.2251103940817
스팟마트 삼성광주전자3점,126.855200174034,35.2245693038909
영암마트 지산점,126.936718803107,35.1480601977275
홈할인마트,126.929285503749,35.1448616628605
FM마트 지산점,126.93298101671849,35.14805999077527
지산마트,126.932043633674,35.148292019881
현대편의마트,126.929523104855,35.1492928936111
마트로 지산점,126.937485549399,35.149946243146
코사마트 삼성점,126.937968243956,35.1501808450642
CU 조대후문점,126.929104419064,35.1461487013695
롯데슈퍼프레시 두암점,126.934944809765,35.162569534140204
파머스마켓 풍향희망점,126.92997215252498,35.163148859516205
영암마트 두암점,126.933201259632,35.1659268679655
해주마트,126.93577460275644,35.15558516116796
SM마트 산수점,126.931201663061,35.1538078725781
인쇄 할인마트,126.929775644882,35.1619120811746
열린중고할인마트,126.931662732291,35.1575974512129
금메달마트,126.93478999289536,35.161262299857306
와이마트 두암점,126.933236387437,35.1659232818954
중고마트,126.932872579575,35.1531535208111
DC생활용품마트,126.931823930305,35.1538190406356
대우마트,126.934439126906,35.1553383745833
인성마트,126.93610258224,35.1558115759635
씨스마트,126.9341646664469,35.16225255539983
두암타운마트,126.934978815538,35.1612155306618
지산행복마트,126.935740080133,35.1534290891023
영암마트내풍년과자점,126.933214457982,35.1658944263343
산수마트,126.931920689552,35.1536027685541
샘골마트,126.932058170408,35.1572082861686
대성종합마트,126.93773529327706,35.15632800396372
S스토아마트 산수점,126.927693086605,35.1536976663246
슈퍼마켓맘 두암점,126.936803722143,35.1631309831184
광주농협하나로마트 충효점,126.999806773182,35.1828186963156
북광주농협 하나로마트로컬푸드직매장,126.88076806513652,35.22416904519493
이마트에브리데이 일곡동점,126.897189145189,35.2045553831021
광주농협하나로마트 일곡점,126.89677112870254,35.205117471395084
다담식자재마트 일곡점,126.898943495569,35.2032084364173
장보고싶은마트,126.881714033975,35.213421371764
고기마트식육식당 양산본점,126.882188955315,35.2161439143171
리얼식자재마트,126.902129430709,35.2039636828563
영암마트 삼각에이스점,126.89814419944,35.1960438110804
SM마트 삼각점,126.901660689536,35.1937969381444
365마트 일곡점,126.894083979906,35.2075812503801
다담식자재마트 일곡점 주차장,126.899070877888,35.2032112467165
동양마트 일곡점,126.895686165852,35.2050876983063
영암마트 일곡점,126.899674267998,35.2126227646788
일곡지구킴스마트옆 공영주차장,126.89761448474432,35.20340381487522
월척도사낚시마트,126.901127185894,35.2253906867828
파워마트,126.900386830052,35.2020135371608
카페마트,126.90314548837708,35.200972909640505
우리동네생활마트,126.90177541364,35.1933571704057
청솔마트,126.897433580052,35.2092858865133
한마음마트,126.896562134691,35.2036534965407
슈퍼데이365마트 일곡점,126.899954274997,35.2064000635884
와이마트 일곡점,126.89954023798,35.2126551021924
국군복지단 충장마트,126.904401427705,35.1974919796142
CU 삼각원룸점,126.90018304071891,35.20253164725024
암소마을,126.881794527073,35.2124443857842
홈플러스 메가푸드마켓 동광주점,126.930393028084,35.1793194599394
광주농협하나로마트 문화점,126.914948399972,35.1796304826194
롯데슈퍼프레시 문흥점,126.92200581218218,35.18655602357972
장터할인마트 문흥점,126.92050215599,35.1854714363918
더줌마트 각화점,126.933057981417,35.1800312310077
직거래장터마트,126.92066833661345,35.17941533437276
소라수퍼,126.93345951435,35.1776771087542
Y식자재마트 호남물류점,126.932193108194,35.1837245074976
중흥마트,126.92259776445776,35.18464174388092
sm마트 문흥점,126.92237241917496,35.18493093482932
다농마트,126.936870370514,35.1848284925235
와이마트 각화군왕로점,126.935836596022,35.1870452840151
365마트 각화점,126.93606224031036,35.1793117689027
옥과식자재마트,126.918243787686,35.1777543247101
고기마트식육식당,126.935259510778,35.1781972656911
인쇄할인마트,126.915428507569,35.1867082649591
와이마트 오치점,126.91346979152,35.1867140922361
일등식자재마트,126.935820641997,35.184993790283
상아마트,126.934219825537,35.1823501559077
에이플러스마트,126.925616184916,35.1807164271375
웰빙할인마트,126.92708098338976,35.17796096962547
중흥할인마트,126.918356052889,35.1840530776621
월드마트 두암점,126.930622608599,35.1778702101686
제이마트 문흥점,126.92236058875729,35.18928898021509
현성마트,126.91724252043628,35.186481475152675
화승마트,126.916936417443,35.1776335547961
라인3차마트,126.920939360309,35.1829623481922
미래할인마트,126.933014267848,35.1811254534675
e편한 마트,126.922312705844,35.1796101918356
투데이마트,126.9206518297039,35.1794558845577
슈퍼마트,126.922323015073,35.1849291004434
제일포장,126.936628880173,35.1847652715084
형제종합상사,126.935692179947,35.1919702114129
나들가게 OK마트,126.935470348591,35.1781252696577
영암마트 용두점,126.870579499313,35.2120777849121
식자재마트,126.875476722934,35.2113411085412
슈퍼마트 용두점,126.871784867584,35.2138150693421
푸르미마트 양산점,126.87022626682344,35.211129185395734
빅케이마트 용두점,126.875539058266,35.2179913386228
슈퍼365마트 양산점,126.880556881057,35.211617533437
용두마트,126.871122768655,35.2130103613726
해피뉴파워마트,126.872385275267,35.2091322827869
와이마트용두점 전기차충전소,126.8704510045178,35.21207584479169
오토마트공업사,126.88664936997696,35.230285841249696
CU 양산우미점,126.878467128182,35.21071410252764
아이마트,126.874509342563,35.2105045570953
태령마트,126.927158357852,35.2511408236538
하나로마트 고서농협로컬 푸드직매장,126.9736646719604,35.22175429615293
D마트정육점,126.97392118428589,35.22336145923249
희망알뜰마트,126.97411236267,35.2231965531835
산덕DC마트,126.99760526450832,35.22908330876587
고서부동산마트,126.974309994742,35.2234633949334
대성농협 하나로마트,126.5986753700118,35.338893648102825
선운산농협하나로마트 공음점,126.513244427302,35.3785326195405
영광농협하나로마트 대마점,126.579866361414,35.3017842758868
동부유통홈마트,126.51478907310404,35.27185359514813
마트넷할인마트,126.512046685818,35.2739057142525
하이아시아마트,126.600066709705,35.340036633241
대산OK할인마트,126.599883521179,35.3388174349357
대산종합마트,126.60082485803,35.3397615308402
열린마트분식,126.511753778461,35.2699675145856
대성할인마트,126.599271381094,35.3407117960648
대성농협 농자재마트,126.601528662912,35.3397999058311
옥당꽃화원,126.516861781513,35.2759476274169
황룡농협하나로마트 동화점,126.737923718057,35.2837815028118
대성농협하나로마트 성송점,126.646994198604,35.36593183374
동화할인마트,126.73973471443566,35.2839521602537
서원마트,126.750414302046,35.3056418979474
CU 동화점,126.740807475599,35.2839824050208
선운산농협하나로마트 선운사점,126.58642130390292,35.50225858257896
해리농협하나로마트,126.541684684733,35.4588749840185
선운산농협하나로마트,126.558936335278,35.4167832121278
남성마트,126.56144567852,35.4145318578697
해리할인마트,126.540538751509,35.4596962234739
태정문구마트,126.560242666057,35.4138533015502
고창농협하나로마트,126.69471705146536,35.43813760911327
선운산농협하나로마트 아산점,126.635340349411,35.4400179606447
고창부안축협 하나로마트,126.697038379409,35.4364471828724
고창농협하나로마트 고수점,126.678585884823,35.408475810506
흥덕농협하나로마트 신림점,126.714999965641,35.4884992503187
원마트 고창점,126.698343925975,35.4371994436162
와이석정웰마트,126.74013816453856,35.43058362540231
와이선운마트,126.709291728275,35.43455119635
대풍 농자재마트,126.691985476144,35.4341621858344
명인낚시용품할인마트,126.71029860796,35.4350799841001
디씨마트,126.698242088443,35.4337958260955
일성정육마트,126.710881615492,35.4383495479296
백양DC마트,126.698219350771,35.4316254032708
고창가구마트,126.695839445157,35.4319511159284
타이하우마트,126.6363369915898,35.44003628888881
휴대폰테크노마트,126.698530553612,35.4358821883307
중앙마트가구,126.696920180849,35.4338979691742
면세마트,126.698971846264,35.4294605199625
대성그릇할인마트,126.69848196323,35.4332592417693
고창휴대폰할인마트,126.695750892734,35.4349991388283
이손마트,126.69716177099,35.4317291107413
기쁨마트,126.709688493287,35.4307846538146
신림하나마트,126.71500431957388,35.48851458281912
하나로마트 주차장,126.6949395250216,35.43784434306778
SK텔레콤 휴대폰종합마트,126.70183884209,35.4343924181032
대성할인마트 정육점,126.699491434508,35.4330670742443
CU 고창선점,126.695348625056,35.4359553203426
웰파크시티힐링카운티 W마트,126.745545301463,35.4323004305785
따따몰,126.736522469201,35.42968078342908
우리동네 고창DC마트점,126.707435627859,35.4364998622059
무인민원발급창구 농협하나로마트,126.694574611837,35.4379434664047
황룡농협 하나로마트 로컬푸드직매장,126.764651145336,35.2938395018737
장성농협하나로마트 본점,126.7827316423783,35.30158246546228
황룡농협하나로마트 본점,126.773436114553,35.2907286350001
진원농협하나로마트 본점,126.8338215109238,35.27289450429468
장성농협하나로마트 북일점,126.807093233492,35.3740664842808
팜스식자재마트,126.780684642262,35.2982375162119
Y식자재마트 장성점,126.78019918709482,35.29480163946813
장성푸드 식자재마트,126.786914380096,35.3056540317724
농협하나로마트 장성복합물류센터,126.79701566356056,35.31407185363415
황룡마트,126.771066384001,35.2905763537612
일등식품마트,126.781587645245,35.3009647921848
영천주공마트,126.776456894619,35.2987922102499
태원마트,126.76599493833623,35.29180508679806
안경마트,126.78406874633406,35.30194449330539
밀양마트,126.782081375228,35.2988890033204
빛고을마트장성점,126.776159049659,35.296758243612
호남가구할인마트,126.78686098204814,35.304213602864095
장성가구할인마트,126.781783974605,35.3031896444461
구용운마트앞 노상공영주차장,126.785929522679,35.3021911620251
CU 장성중앙점,126.781450267781,35.2997170942955
나들가게 황룡시장마트,126.774446304468,35.2911595596988
담양농협 하나로마트 대형점,126.97572016082307,35.312590333853244
담양축협하나로마트 본점,126.98487884188322,35.319252701640266
담양농협하나로마트 용면점,126.98757531259388,35.362654878852176
수북농협하나로마트,126.93197051367508,35.30047858709014
봉산농협하나로마트,126.955876821299,35.2750403224702
담양대전농협하나로마트,126.888950967047,35.2768685886997
담양농협월산지점하나로마트,126.955550905677,35.3404196206322
담양농협하나로마트 담빛문화지점,126.946221730092,35.3155317891104
와이식자재 담양점,126.985682505292,35.3143315036212
담양식자재마트,126.98306259460698,35.314260139719906
와이식자재마트 담빛지구점,126.951981363362,35.3106922327288
나라마트,126.98291622779668,35.317411912166094
담양양우회 빅마트,126.982175996971,35.3180301218793
승우,126.98568910401,35.3143269977193
백동건자재마트,126.98493572662,35.309013524599
로드마트,126.92234021335,35.3488609451569
팜스식자재마트 주차장,126.989948469506,35.3199337378827
에프엠마트 담양점,126.98621543415868,35.31670838970265
담양원예할인마트,126.974981212033,35.3125811698614
담양화니마트,126.983351051285,35.3152469630194
담양농협하나로마트 대형점 주차장,126.976083188735,35.312081150857
우리동네생활용품DC마트,126.984533186235,35.315280469448
코아마트 담양점,126.983711786656,35.3150234807006
마운틴마트 대치점,126.88728496755056,35.27664712063321
백동마트,126.9861146549955,35.30798073296106
사료마트,126.9818325184,35.3196885288572
대나무마트,126.981092867758,35.3224140542976
신성마트문구,126.97804629453988,35.29884177053737
태암더자람글로벌마트,126.896809143344,35.2618375426854
죽향마트축산물판매장,126.98148722179285,35.30996035138516
국군복지단 매화군마트,126.99698753351436,35.298540875579995
CU 담양행복점,126.985039259641,35.3200206597049
호반수퍼,126.980086141335,35.3197351233194
백양사농협하나로마트 본점,126.80837702866636,35.429613388066805
백양사농협하나로마트 북하점,126.882020816473,35.4078003009348
황토현농협하나로마트 입암점,126.793626513557,35.5058346469135
고향마트사진관,126.808988330593,35.4290933948982
서순창농협하나로마트,126.93057963268312,35.43164094643865
순창농협하나로마트 쌍치점,127.000740662059,35.4997813080567
평화선물마트,126.927546027501,35.4939289874885
해리농협하나로마트 심원점,126.54990657606,35.5237815667046
곰소할인마트,126.607146162831,35.5874650914377
진서할인마트,126.610822909204,35.5892219146472
마트낚시문구,126.552931024929,35.5247193471449
심원마트,126.551672130572,35.5242928678885
우리밀마트,126.631729060094,35.6125480395825
신원마트종합화장품,126.551605340251,35.5244079855242
남부안농협로컬푸드직매장,126.61273548590977,35.58982653087787
남부안농협하나로마트 줄포점,126.678796942986,35.5912824976764
흥덕농협하나로마트,126.700705758719,35.5202734700792
고창농협하나로마트 부안점,126.674515100227,35.513928978897
흥덕농협하나로마트 성내점,126.741314003346,35.5400265758803
줄포효마트,126.675723029613,35.5884910806658
줄포식자재마트,126.679991456605,35.5936245238672
길마트,126.69970799218405,35.519398530139576
성일마트낚시,126.69922344180304,35.51896289538977
폰마트,126.678230833023,35.5890899498985
줄포아시아마트,126.678350544847,35.5914363291458
삼양한우마트,126.700101473742,35.5203116264971
성내마트,126.740988608164,35.5397122251016
